{"type": "FeatureCollection", "features": [{"type": "Feature", "geometry": {"type": "Point", "coordinates": [16.3725, 48.20835]}, "properties": {"name": "Wien", "place": "city", "rank": 3, "pop": 2042036}}, {"type": "Feature", "geometry": {"type": "Point", "coordinates": [7.26839, 43.70094]}, "properties": {"name": "Nice", "place": "city", "rank": 3, "pop": 348085}}, {"type": "Feature", "geometry": {"type": "Point", "coordinates": [15.43828, 47.07087]}, "properties": {"name": "Graz", "place": "city", "rank": 3, "ele": 353, "pop": 331359}}, {"type": "Feature", "geometry": {"type": "Point", "coordinates": [14.50693, 46.05003]}, "properties": {"name": "Ljubljana", "place": "city", "rank": 3, "pop": 285604}}, {"type": "Feature", "geometry": {"type": "Point", "coordinates": [10.99241, 45.4385]}, "properties": {"name": "Verona", "place": "city", "rank": 3, "pop": 259966}}, {"type": "Feature", "geometry": {"type": "Point", "coordinates": [10.22002, 45.5398]}, "properties": {"name": "Brescia", "place": "city", "rank": 3, "pop": 187567}}, {"type": "Feature", "geometry": {"type": "Point", "coordinates": [5.73578, 45.18756]}, "properties": {"name": "Grenoble", "place": "city", "rank": 3, "pop": 157477}}, {"type": "Feature", "geometry": {"type": "Point", "coordinates": [13.04648, 47.79813]}, "properties": {"name": "Salzburg", "place": "city", "rank": 3, "ele": 424, "pop": 152083}}, {"type": "Feature", "geometry": {"type": "Point", "coordinates": [6.12888, 45.89923]}, "properties": {"name": "Annecy", "place": "city", "rank": 3, "pop": 131715}}, {"type": "Feature", "geometry": {"type": "Point", "coordinates": [11.39277, 47.26543]}, "properties": {"name": "Innsbruck", "place": "city", "rank": 3, "ele": 574, "pop": 130585}}, {"type": "Feature", "geometry": {"type": "Point", "coordinates": [9.66987, 45.69449]}, "properties": {"name": "Bergamo", "place": "city", "rank": 3, "pop": 120569}}, {"type": "Feature", "geometry": {"type": "Point", "coordinates": [11.12576, 46.06642]}, "properties": {"name": "Trento", "place": "city", "rank": 3, "ele": 194, "pop": 117317}}, {"type": "Feature", "geometry": {"type": "Point", "coordinates": [11.35474, 46.49848]}, "properties": {"name": "Bolzano - Bozen", "place": "city", "rank": 3, "ele": 262, "pop": 105713}}, {"type": "Feature", "geometry": {"type": "Point", "coordinates": [14.3076, 46.62394]}, "properties": {"name": "Klagenfurt", "place": "city", "rank": 3, "ele": 446, "pop": 100316}}, {"type": "Feature", "geometry": {"type": "Point", "coordinates": [15.64559, 46.55764]}, "properties": {"name": "Maribor", "place": "city", "rank": 3, "pop": 96000}}, {"type": "Feature", "geometry": {"type": "Point", "coordinates": [9.08304, 45.81156]}, "properties": {"name": "Como", "place": "city", "rank": 3, "pop": 83422}}, {"type": "Feature", "geometry": {"type": "Point", "coordinates": [8.30581, 47.05214]}, "properties": {"name": "Luzern", "place": "city", "rank": 3, "ele": 436, "pop": 81284}}, {"type": "Feature", "geometry": {"type": "Point", "coordinates": [8.82635, 45.81755]}, "properties": {"name": "Varese", "place": "city", "rank": 3, "pop": 78962}}, {"type": "Feature", "geometry": {"type": "Point", "coordinates": [8.95123, 46.0038]}, "properties": {"name": "Lugano", "place": "city", "rank": 3, "ele": 273, "pop": 67000}}, {"type": "Feature", "geometry": {"type": "Point", "coordinates": [8.48103, 44.30803]}, "properties": {"name": "Savona", "place": "city", "rank": 3, "pop": 61345}}, {"type": "Feature", "geometry": {"type": "Point", "coordinates": [7.5479, 44.38963]}, "properties": {"name": "Cuneo", "place": "city", "rank": 3, "ele": 534, "pop": 55939}}, {"type": "Feature", "geometry": {"type": "Point", "coordinates": [8.05428, 45.56641]}, "properties": {"name": "Biella", "place": "city", "rank": 3, "pop": 45740}}, {"type": "Feature", "geometry": {"type": "Point", "coordinates": [9.3896, 45.85538]}, "properties": {"name": "Lecco", "place": "city", "rank": 3, "pop": 45501}}, {"type": "Feature", "geometry": {"type": "Point", "coordinates": [8.02862, 43.88622]}, "properties": {"name": "Imperia", "place": "city", "rank": 3, "pop": 42369}}, {"type": "Feature", "geometry": {"type": "Point", "coordinates": [15.26168, 46.22939]}, "properties": {"name": "Celje", "place": "city", "rank": 3, "ele": 238, "pop": 37872}}, {"type": "Feature", "geometry": {"type": "Point", "coordinates": [14.35494, 46.24329]}, "properties": {"name": "Kranj", "place": "city", "rank": 3, "pop": 36800}}, {"type": "Feature", "geometry": {"type": "Point", "coordinates": [7.3204, 45.73731]}, "properties": {"name": "Aosta - Aoste", "place": "city", "rank": 3, "ele": 583, "pop": 30000}}, {"type": "Feature", "geometry": {"type": "Point", "coordinates": [16.59835, 47.68031]}, "properties": {"name": "Sopron", "place": "town", "rank": 2, "pop": 61589}}, {"type": "Feature", "geometry": {"type": "Point", "coordinates": [13.85003, 46.61673]}, "properties": {"name": "Villach", "place": "town", "rank": 2, "ele": 501, "pop": 61221}}, {"type": "Feature", "geometry": {"type": "Point", "coordinates": [5.92036, 45.56627]}, "properties": {"name": "Chambéry", "place": "town", "rank": 2, "pop": 59856}}, {"type": "Feature", "geometry": {"type": "Point", "coordinates": [7.77506, 43.81704]}, "properties": {"name": "Sanremo", "place": "town", "rank": 2, "pop": 54807}}, {"type": "Feature", "geometry": {"type": "Point", "coordinates": [7.15138, 43.6612]}, "properties": {"name": "Cagnes-sur-Mer", "place": "town", "rank": 2, "pop": 52580}}, {"type": "Feature", "geometry": {"type": "Point", "coordinates": [9.74238, 47.41364]}, "properties": {"name": "Dornbirn", "place": "town", "rank": 2, "ele": 437, "pop": 51222}}, {"type": "Feature", "geometry": {"type": "Point", "coordinates": [7.51768, 45.06972]}, "properties": {"name": "Rivoli", "place": "town", "rank": 2, "pop": 49792}}, {"type": "Feature", "geometry": {"type": "Point", "coordinates": [6.92391, 43.6589]}, "properties": {"name": "Grasse", "place": "town", "rank": 2, "pop": 48323}}, {"type": "Feature", "geometry": {"type": "Point", "coordinates": [7.62809, 46.75828]}, "properties": {"name": "Thun", "place": "town", "rank": 2, "ele": 560, "pop": 43905}}, {"type": "Feature", "geometry": {"type": "Point", "coordinates": [9.02059, 46.19205]}, "properties": {"name": "Bellinzona", "place": "town", "rank": 2, "ele": 230, "pop": 43785}}, {"type": "Feature", "geometry": {"type": "Point", "coordinates": [11.73435, 45.76691]}, "properties": {"name": "Bassano del Grappa", "place": "town", "rank": 2, "pop": 43372}}, {"type": "Feature", "geometry": {"type": "Point", "coordinates": [6.08206, 44.5612]}, "properties": {"name": "Gap", "place": "town", "rank": 2, "pop": 40500}}, {"type": "Feature", "geometry": {"type": "Point", "coordinates": [6.46273, 43.53747]}, "properties": {"name": "Draguignan", "place": "town", "rank": 2, "pop": 39745}}, {"type": "Feature", "geometry": {"type": "Point", "coordinates": [11.35536, 45.71135]}, "properties": {"name": "Schio", "place": "town", "rank": 2, "pop": 39355}}, {"type": "Feature", "geometry": {"type": "Point", "coordinates": [11.04524, 45.88655]}, "properties": {"name": "Rovereto", "place": "town", "rank": 2, "ele": 204, "pop": 39289}}, {"type": "Feature", "geometry": {"type": "Point", "coordinates": [7.42096, 43.73102]}, "properties": {"name": "Monaco", "place": "town", "rank": 2, "pop": 39050}}, {"type": "Feature", "geometry": {"type": "Point", "coordinates": [16.24412, 47.81318]}, "properties": {"name": "Wiener Neustadt", "place": "town", "rank": 2, "ele": 262, "pop": 38481}}, {"type": "Feature", "geometry": {"type": "Point", "coordinates": [5.75448, 45.18367]}, "properties": {"name": "Saint-Martin-d'Hères", "place": "town", "rank": 2, "pop": 38454}}, {"type": "Feature", "geometry": {"type": "Point", "coordinates": [14.41913, 48.039]}, "properties": {"name": "Steyr", "place": "town", "rank": 2, "ele": 310, "pop": 38344}}, {"type": "Feature", "geometry": {"type": "Point", "coordinates": [6.23411, 46.1934]}, "properties": {"name": "Annemasse", "place": "town", "rank": 2, "pop": 37918}}, {"type": "Feature", "geometry": {"type": "Point", "coordinates": [7.16127, 46.80557]}, "properties": {"name": "Fribourg", "place": "town", "rank": 2, "ele": 610, "pop": 37485}}, {"type": "Feature", "geometry": {"type": "Point", "coordinates": [9.52649, 46.85475]}, "properties": {"name": "Chur", "place": "town", "rank": 2, "ele": 593, "pop": 37082}}, {"type": "Feature", "geometry": {"type": "Point", "coordinates": [6.47794, 46.37313]}, "properties": {"name": "Thonon-les-Bains", "place": "town", "rank": 2, "pop": 37027}}, {"type": "Feature", "geometry": {"type": "Point", "coordinates": [5.71869, 45.14817]}, "properties": {"name": "Échirolles", "place": "town", "rank": 2, "pop": 36849}}, {"type": "Feature", "geometry": {"type": "Point", "coordinates": [12.21817, 46.13752]}, "properties": {"name": "Belluno", "place": "town", "rank": 2, "ele": 386, "pop": 35870}}, {"type": "Feature", "geometry": {"type": "Point", "coordinates": [9.59817, 47.23757]}, "properties": {"name": "Feldkirch", "place": "town", "rank": 2, "pop": 35793}}, {"type": "Feature", "geometry": {"type": "Point", "coordinates": [9.1291, 45.73953]}, "properties": {"name": "Cantù", "place": "town", "rank": 2, "pop": 35153}}, {"type": "Feature", "geometry": {"type": "Point", "coordinates": [7.35888, 46.23117]}, "properties": {"name": "Sion", "place": "town", "rank": 2, "ele": 515, "pop": 34599}}, {"type": "Feature", "geometry": {"type": "Point", "coordinates": [11.16463, 46.67135]}, "properties": {"name": "Merano - Meran", "place": "town", "rank": 2, "pop": 33656}}, {"type": "Feature", "geometry": {"type": "Point", "coordinates": [7.33195, 44.88731]}, "properties": {"name": "Pinerolo", "place": "town", "rank": 2, "pop": 33494}}, {"type": "Feature", "geometry": {"type": "Point", "coordinates": [5.91464, 45.68863]}, "properties": {"name": "Aix-les-Bains", "place": "town", "rank": 2, "pop": 31874}}, {"type": "Feature", "geometry": {"type": "Point", "coordinates": [7.1907, 43.66901]}, "properties": {"name": "Saint-Laurent-du-Var", "place": "town", "rank": 2, "pop": 30941}}, {"type": "Feature", "geometry": {"type": "Point", "coordinates": [7.50292, 43.77535]}, "properties": {"name": "Menton", "place": "town", "rank": 2, "pop": 30412}}, {"type": "Feature", "geometry": {"type": "Point", "coordinates": [8.28395, 47.07524]}, "properties": {"name": "Emmen", "place": "town", "rank": 2, "ele": 429, "pop": 29721}}, {"type": "Feature", "geometry": {"type": "Point", "coordinates": [9.74729, 47.50258]}, "properties": {"name": "Bregenz", "place": "town", "rank": 2, "ele": 427, "pop": 29620}}, {"type": "Feature", "geometry": {"type": "Point", "coordinates": [8.51737, 47.16799]}, "properties": {"name": "Zug", "place": "town", "rank": 2, "ele": 425, "pop": 29251}}, {"type": "Feature", "geometry": {"type": "Point", "coordinates": [12.29585, 45.98982]}, "properties": {"name": "Vittorio Veneto", "place": "town", "rank": 2, "pop": 28232}}, {"type": "Feature", "geometry": {"type": "Point", "coordinates": [7.05812, 46.6191]}, "properties": {"name": "Bulle", "place": "town", "rank": 2, "ele": 771, "pop": 27101}}, {"type": "Feature", "geometry": {"type": "Point", "coordinates": [16.32376, 48.30499]}, "properties": {"name": "Klosterneuburg", "place": "town", "rank": 2, "pop": 26816}}, {"type": "Feature", "geometry": {"type": "Point", "coordinates": [8.8164, 47.22665]}, "properties": {"name": "Rapperswil", "place": "town", "rank": 2, "pop": 26354}}, {"type": "Feature", "geometry": {"type": "Point", "coordinates": [11.30406, 45.64132]}, "properties": {"name": "Valdagno", "place": "town", "rank": 2, "pop": 26234}}, {"type": "Feature", "geometry": {"type": "Point", "coordinates": [6.91299, 46.43108]}, "properties": {"name": "Montreux", "place": "town", "rank": 2, "ele": 390, "pop": 26208}}, {"type": "Feature", "geometry": {"type": "Point", "coordinates": [11.09628, 47.49237]}, "properties": {"name": "Garmisch-Partenkirchen", "place": "town", "rank": 2, "ele": 708, "pop": 26102}}, {"type": "Feature", "geometry": {"type": "Point", "coordinates": [8.2808, 47.03415]}, "properties": {"name": "Kriens", "place": "town", "rank": 2, "pop": 25932}}, {"type": "Feature", "geometry": {"type": "Point", "coordinates": [5.03835, 43.83568]}, "properties": {"name": "Cavaillon", "place": "town", "rank": 2, "pop": 25923}}, {"type": "Feature", "geometry": {"type": "Point", "coordinates": [11.33859, 45.51929]}, "properties": {"name": "Arzignano", "place": "town", "rank": 2, "pop": 25844}}, {"type": "Feature", "geometry": {"type": "Point", "coordinates": [15.11503, 46.35929]}, "properties": {"name": "Velenje", "place": "town", "rank": 2, "pop": 25800}}, {"type": "Feature", "geometry": {"type": "Point", "coordinates": [9.718, 45.68437]}, "properties": {"name": "Seriate", "place": "town", "rank": 2, "pop": 25380}}, {"type": "Feature", "geometry": {"type": "Point", "coordinates": [14.84521, 46.83906]}, "properties": {"name": "Wolfsberg", "place": "town", "rank": 2, "ele": 463, "pop": 25045}}, {"type": "Feature", "geometry": {"type": "Point", "coordinates": [16.23437, 48.00767]}, "properties": {"name": "Baden", "place": "town", "rank": 2, "pop": 25000}}, {"type": "Feature", "geometry": {"type": "Point", "coordinates": [15.09478, 47.38051]}, "properties": {"name": "Leoben", "place": "town", "rank": 2, "pop": 24645}}, {"type": "Feature", "geometry": {"type": "Point", "coordinates": [8.67014, 47.2279]}, "properties": {"name": "Wädenswil", "place": "town", "rank": 2, "ele": 408, "pop": 24341}}, {"type": "Feature", "geometry": {"type": "Point", "coordinates": [8.21312, 44.04925]}, "properties": {"name": "Albenga", "place": "town", "rank": 2, "pop": 24213}}, {"type": "Feature", "geometry": {"type": "Point", "coordinates": [7.60331, 43.79176]}, "properties": {"name": "Ventimiglia", "place": "town", "rank": 2, "pop": 24189}}, {"type": "Feature", "geometry": {"type": "Point", "coordinates": [11.47972, 45.70599]}, "properties": {"name": "Thiene", "place": "town", "rank": 2, "pop": 24059}}, {"type": "Feature", "geometry": {"type": "Point", "coordinates": [11.40844, 45.50508]}, "properties": {"name": "Montecchio Maggiore", "place": "town", "rank": 2, "pop": 23664}}, {"type": "Feature", "geometry": {"type": "Point", "coordinates": [8.5254, 47.1952]}, "properties": {"name": "Baar", "place": "town", "rank": 2, "ele": 443, "pop": 23557}}, {"type": "Feature", "geometry": {"type": "Point", "coordinates": [7.8748, 45.46738]}, "properties": {"name": "Ivrea", "place": "town", "rank": 2, "pop": 23536}}, {"type": "Feature", "geometry": {"type": "Point", "coordinates": [11.65779, 46.71641]}, "properties": {"name": "Brixen - Bressanone", "place": "town", "rank": 2, "ele": 560, "pop": 23004}}, {"type": "Feature", "geometry": {"type": "Point", "coordinates": [15.29017, 47.44055]}, "properties": {"name": "Kapfenberg", "place": "town", "rank": 2, "pop": 23004}}, {"type": "Feature", "geometry": {"type": "Point", "coordinates": [5.78267, 43.8338]}, "properties": {"name": "Manosque", "place": "town", "rank": 2, "pop": 22926}}, {"type": "Feature", "geometry": {"type": "Point", "coordinates": [5.68696, 45.19502]}, "properties": {"name": "Fontaine", "place": "town", "rank": 2, "pop": 22891}}, {"type": "Feature", "geometry": {"type": "Point", "coordinates": [7.82047, 44.39003]}, "properties": {"name": "Mondovì", "place": "town", "rank": 2, "pop": 21880}}, {"type": "Feature", "geometry": {"type": "Point", "coordinates": [7.07274, 46.10312]}, "properties": {"name": "Martigny", "place": "town", "rank": 2, "pop": 21759}}, {"type": "Feature", "geometry": {"type": "Point", "coordinates": [8.46237, 45.69891]}, "properties": {"name": "Borgomanero", "place": "town", "rank": 2, "pop": 21650}}, {"type": "Feature", "geometry": {"type": "Point", "coordinates": [11.27008, 45.39564]}, "properties": {"name": "San Bonifacio", "place": "town", "rank": 2, "pop": 21284}}, {"type": "Feature", "geometry": {"type": "Point", "coordinates": [11.24067, 46.06053]}, "properties": {"name": "Pergine Valsugana", "place": "town", "rank": 2, "pop": 21280}}, {"type": "Feature", "geometry": {"type": "Point", "coordinates": [10.2615, 45.64991]}, "properties": {"name": "Lumezzane", "place": "town", "rank": 2, "pop": 21000}}, {"type": "Feature", "geometry": {"type": "Point", "coordinates": [5.59108, 45.36314]}, "properties": {"name": "Voiron", "place": "town", "rank": 2, "pop": 20891}}, {"type": "Feature", "geometry": {"type": "Point", "coordinates": [13.09563, 47.68215]}, "properties": {"name": "Hallein", "place": "town", "rank": 2, "pop": 20768}}, {"type": "Feature", "geometry": {"type": "Point", "coordinates": [11.90625, 46.01638]}, "properties": {"name": "Feltre", "place": "town", "rank": 2, "pop": 20649}}, {"type": "Feature", "geometry": {"type": "Point", "coordinates": [16.28335, 48.08559]}, "properties": {"name": "Mödling", "place": "town", "rank": 2, "pop": 20619}}, {"type": "Feature", "geometry": {"type": "Point", "coordinates": [6.84187, 46.4603]}, "properties": {"name": "Vevey", "place": "town", "rank": 2, "ele": 383, "pop": 20142}}, {"type": "Feature", "geometry": {"type": "Point", "coordinates": [5.50327, 43.69515]}, "properties": {"name": "Pertuis", "place": "town", "rank": 2, "pop": 20012}}, {"type": "Feature", "geometry": {"type": "Point", "coordinates": [5.05154, 43.91854]}, "properties": {"name": "L'Isle-sur-la-Sorgue", "place": "town", "rank": 2, "pop": 19965}}, {"type": "Feature", "geometry": {"type": "Point", "coordinates": [10.84625, 45.47413]}, "properties": {"name": "Bussolengo", "place": "town", "rank": 2, "pop": 19938}}, {"type": "Feature", "geometry": {"type": "Point", "coordinates": [12.50344, 45.9548]}, "properties": {"name": "Sacile / Sacîl", "place": "town", "rank": 2, "pop": 19837}}, {"type": "Feature", "geometry": {"type": "Point", "coordinates": [11.55961, 47.761]}, "properties": {"name": "Bad Tölz", "place": "town", "rank": 2, "pop": 19821}}, {"type": "Feature", "geometry": {"type": "Point", "coordinates": [6.39254, 45.67546]}, "properties": {"name": "Albertville", "place": "town", "rank": 2, "pop": 19812}}, {"type": "Feature", "geometry": {"type": "Point", "coordinates": [7.11168, 43.72242]}, "properties": {"name": "Vence", "place": "town", "rank": 2, "pop": 19415}}, {"type": "Feature", "geometry": {"type": "Point", "coordinates": [12.16921, 47.583]}, "properties": {"name": "Kufstein", "place": "town", "rank": 2, "pop": 19223}}, {"type": "Feature", "geometry": {"type": "Point", "coordinates": [9.87162, 46.17121]}, "properties": {"name": "Sondrio", "place": "town", "rank": 2, "ele": 307, "pop": 19208}}, {"type": "Feature", "geometry": {"type": "Point", "coordinates": [5.77836, 45.20974]}, "properties": {"name": "Meylan", "place": "town", "rank": 2, "pop": 18573}}, {"type": "Feature", "geometry": {"type": "Point", "coordinates": [8.29205, 46.11525]}, "properties": {"name": "Domodossola", "place": "town", "rank": 2, "pop": 18466}}, {"type": "Feature", "geometry": {"type": "Point", "coordinates": [7.60031, 45.23528]}, "properties": {"name": "Ciriè", "place": "town", "rank": 2, "pop": 18188}}, {"type": "Feature", "geometry": {"type": "Point", "coordinates": [6.94783, 46.25284]}, "properties": {"name": "Monthey", "place": "town", "rank": 2, "ele": 430, "pop": 18178}}, {"type": "Feature", "geometry": {"type": "Point", "coordinates": [16.29523, 48.01389]}, "properties": {"name": "Traiskirchen", "place": "town", "rank": 2, "pop": 18000}}, {"type": "Feature", "geometry": {"type": "Point", "coordinates": [9.79695, 45.76066]}, "properties": {"name": "Albino", "place": "town", "rank": 2, "pop": 17800}}, {"type": "Feature", "geometry": {"type": "Point", "coordinates": [8.83766, 47.22997]}, "properties": {"name": "Jona", "place": "town", "rank": 2, "ele": 420, "pop": 17799}}, {"type": "Feature", "geometry": {"type": "Point", "coordinates": [10.8861, 45.91813]}, "properties": {"name": "Arco", "place": "town", "rank": 2, "pop": 17526}}, {"type": "Feature", "geometry": {"type": "Point", "coordinates": [12.87609, 47.72227]}, "properties": {"name": "Bad Reichenhall", "place": "town", "rank": 2, "ele": 473, "pop": 17513}}, {"type": "Feature", "geometry": {"type": "Point", "coordinates": [12.8481, 47.42662]}, "properties": {"name": "Saalfelden am Steinernen Meer", "place": "town", "rank": 2, "ele": 748, "pop": 17299}}, {"type": "Feature", "geometry": {"type": "Point", "coordinates": [7.4926, 44.64461]}, "properties": {"name": "Saluzzo", "place": "town", "rank": 2, "pop": 17258}}, {"type": "Feature", "geometry": {"type": "Point", "coordinates": [6.23464, 44.09176]}, "properties": {"name": "Digne-les-Bains", "place": "town", "rank": 2, "pop": 17192}}, {"type": "Feature", "geometry": {"type": "Point", "coordinates": [6.58042, 46.06032]}, "properties": {"name": "Cluses", "place": "town", "rank": 2, "pop": 17164}}, {"type": "Feature", "geometry": {"type": "Point", "coordinates": [6.63026, 45.93612]}, "properties": {"name": "Sallanches", "place": "town", "rank": 2, "pop": 17133}}, {"type": "Feature", "geometry": {"type": "Point", "coordinates": [10.8691, 45.48337]}, "properties": {"name": "Pescantina", "place": "town", "rank": 2, "pop": 17128}}, {"type": "Feature", "geometry": {"type": "Point", "coordinates": [10.94002, 45.52967]}, "properties": {"name": "Negrar di Valpolicella", "place": "town", "rank": 2, "pop": 17093}}, {"type": "Feature", "geometry": {"type": "Point", "coordinates": [5.68178, 45.23251]}, "properties": {"name": "Saint-Égrève", "place": "town", "rank": 2, "pop": 16995}}, {"type": "Feature", "geometry": {"type": "Point", "coordinates": [10.83969, 45.88477]}, "properties": {"name": "Riva del Garda", "place": "town", "rank": 2, "pop": 16926}}, {"type": "Feature", "geometry": {"type": "Point", "coordinates": [16.20763, 48.38461]}, "properties": {"name": "Stockerau", "place": "town", "rank": 2, "pop": 16858}}, {"type": "Feature", "geometry": {"type": "Point", "coordinates": [7.35199, 45.04201]}, "properties": {"name": "Giaveno", "place": "town", "rank": 2, "ele": 506, "pop": 16747}}, {"type": "Feature", "geometry": {"type": "Point", "coordinates": [9.68927, 47.364]}, "properties": {"name": "Hohenems", "place": "town", "rank": 2, "ele": 432, "pop": 16720}}, {"type": "Feature", "geometry": {"type": "Point", "coordinates": [7.53232, 46.29225]}, "properties": {"name": "Sierre", "place": "town", "rank": 2, "ele": 533, "pop": 16711}}, {"type": "Feature", "geometry": {"type": "Point", "coordinates": [7.5254, 45.09572]}, "properties": {"name": "Alpignano", "place": "town", "rank": 2, "pop": 16648}}, {"type": "Feature", "geometry": {"type": "Point", "coordinates": [9.2167, 45.80972]}, "properties": {"name": "Erba", "place": "town", "rank": 2, "pop": 16374}}, {"type": "Feature", "geometry": {"type": "Point", "coordinates": [7.46293, 44.9909]}, "properties": {"name": "Piossasco", "place": "town", "rank": 2, "pop": 16138}}, {"type": "Feature", "geometry": {"type": "Point", "coordinates": [11.3763, 47.75185]}, "properties": {"name": "Penzberg", "place": "town", "rank": 2, "pop": 16092}}, {"type": "Feature", "geometry": {"type": "Point", "coordinates": [8.79549, 46.16957]}, "properties": {"name": "Locarno", "place": "town", "rank": 2, "ele": 195, "pop": 16000}}, {"type": "Feature", "geometry": {"type": "Point", "coordinates": [10.18071, 45.88349]}, "properties": {"name": "Darfo Boario Terme", "place": "town", "rank": 2, "pop": 15932}}, {"type": "Feature", "geometry": {"type": "Point", "coordinates": [11.07151, 47.30465]}, "properties": {"name": "Telfs", "place": "town", "rank": 2, "ele": 634, "pop": 15920}}, {"type": "Feature", "geometry": {"type": "Point", "coordinates": [12.98239, 47.84097]}, "properties": {"name": "Freilassing", "place": "town", "rank": 2, "pop": 15890}}, {"type": "Feature", "geometry": {"type": "Point", "coordinates": [7.63542, 46.77747]}, "properties": {"name": "Steffisburg", "place": "town", "rank": 2, "ele": 585, "pop": 15816}}, {"type": "Feature", "geometry": {"type": "Point", "coordinates": [8.98753, 45.87097]}, "properties": {"name": "Mendrisio", "place": "town", "rank": 2, "ele": 354, "pop": 15562}}, {"type": "Feature", "geometry": {"type": "Point", "coordinates": [13.49633, 46.79822]}, "properties": {"name": "Spittal an der Drau", "place": "town", "rank": 2, "ele": 560, "pop": 15549}}, {"type": "Feature", "geometry": {"type": "Point", "coordinates": [15.05402, 46.1559]}, "properties": {"name": "Trbovlje", "place": "town", "rank": 2, "pop": 15500}}, {"type": "Feature", "geometry": {"type": "Point", "coordinates": [8.40802, 45.87977]}, "properties": {"name": "Omegna", "place": "town", "rank": 2, "pop": 15373}}, {"type": "Feature", "geometry": {"type": "Point", "coordinates": [11.13588, 45.37513]}, "properties": {"name": "Zevio", "place": "town", "rank": 2, "pop": 15353}}, {"type": "Feature", "geometry": {"type": "Point", "coordinates": [8.17999, 45.56991]}, "properties": {"name": "Cossato", "place": "town", "rank": 2, "pop": 15266}}, {"type": "Feature", "geometry": {"type": "Point", "coordinates": [11.33477, 46.42282]}, "properties": {"name": "Laives - Leifers", "place": "town", "rank": 2, "pop": 15069}}, {"type": "Feature", "geometry": {"type": "Point", "coordinates": [9.82193, 47.15304]}, "properties": {"name": "Bludenz", "place": "town", "rank": 2, "pop": 15029}}, {"type": "Feature", "geometry": {"type": "Point", "coordinates": [12.64846, 47.86953]}, "properties": {"name": "Traunstein", "place": "town", "rank": 2, "ele": 591, "pop": 15000}}, {"type": "Feature", "geometry": {"type": "Point", "coordinates": [11.40749, 45.6603]}, "properties": {"name": "Malo", "place": "town", "rank": 2, "pop": 14951}}, {"type": "Feature", "geometry": {"type": "Point", "coordinates": [11.09344, 45.42333]}, "properties": {"name": "San Martino Buon Albergo", "place": "town", "rank": 2, "pop": 14940}}, {"type": "Feature", "geometry": {"type": "Point", "coordinates": [7.54342, 45.10585]}, "properties": {"name": "Pianezza", "place": "town", "rank": 2, "pop": 14918}}, {"type": "Feature", "geometry": {"type": "Point", "coordinates": [16.01947, 47.7066]}, "properties": {"name": "Ternitz", "place": "town", "rank": 2, "ele": 393, "pop": 14823}}, {"type": "Feature", "geometry": {"type": "Point", "coordinates": [8.65356, 47.02118]}, "properties": {"name": "Schwyz", "place": "town", "rank": 2, "ele": 516, "pop": 14750}}, {"type": "Feature", "geometry": {"type": "Point", "coordinates": [10.15345, 45.59266]}, "properties": {"name": "Gussago", "place": "town", "rank": 2, "ele": 186, "pop": 14502}}, {"type": "Feature", "geometry": {"type": "Point", "coordinates": [11.75839, 45.79624]}, "properties": {"name": "Romano d'Ezzelino", "place": "town", "rank": 2, "pop": 14478}}, {"type": "Feature", "geometry": {"type": "Point", "coordinates": [14.0965, 46.72292]}, "properties": {"name": "Feldkirchen", "place": "town", "rank": 2, "ele": 554, "pop": 14434}}, {"type": "Feature", "geometry": {"type": "Point", "coordinates": [11.50753, 47.28166]}, "properties": {"name": "Hall in Tirol", "place": "town", "rank": 2, "ele": 574, "pop": 14418}}, {"type": "Feature", "geometry": {"type": "Point", "coordinates": [8.56041, 45.75984]}, "properties": {"name": "Arona", "place": "town", "rank": 2, "pop": 14310}}, {"type": "Feature", "geometry": {"type": "Point", "coordinates": [8.73991, 45.99891]}, "properties": {"name": "Luino", "place": "town", "rank": 2, "pop": 14234}}, {"type": "Feature", "geometry": {"type": "Point", "coordinates": [10.69932, 47.5676]}, "properties": {"name": "Füssen", "place": "town", "rank": 2, "ele": 808, "pop": 14139}}, {"type": "Feature", "geometry": {"type": "Point", "coordinates": [9.4173, 45.69811]}, "properties": {"name": "Merate", "place": "town", "rank": 2, "pop": 14096}}, {"type": "Feature", "geometry": {"type": "Point", "coordinates": [13.62393, 47.71153]}, "properties": {"name": "Bad Ischl", "place": "town", "rank": 2, "pop": 14088}}, {"type": "Feature", "geometry": {"type": "Point", "coordinates": [11.65689, 45.74539]}, "properties": {"name": "Marostica", "place": "town", "rank": 2, "pop": 13989}}, {"type": "Feature", "geometry": {"type": "Point", "coordinates": [8.27686, 45.71667]}, "properties": {"name": "Borgosesia", "place": "town", "rank": 2, "ele": 354, "pop": 13926}}, {"type": "Feature", "geometry": {"type": "Point", "coordinates": [14.87524, 48.12033]}, "properties": {"name": "Amstetten", "place": "town", "rank": 2, "pop": 13878}}, {"type": "Feature", "geometry": {"type": "Point", "coordinates": [9.43298, 45.80147]}, "properties": {"name": "Calolziocorte", "place": "town", "rank": 2, "pop": 13867}}, {"type": "Feature", "geometry": {"type": "Point", "coordinates": [13.43033, 46.09362]}, "properties": {"name": "Cividale del Friuli", "place": "town", "rank": 2, "pop": 13844}}, {"type": "Feature", "geometry": {"type": "Point", "coordinates": [12.06376, 47.48727]}, "properties": {"name": "Wörgl", "place": "town", "rank": 2, "ele": 513, "pop": 13811}}, {"type": "Feature", "geometry": {"type": "Point", "coordinates": [14.61189, 46.22574]}, "properties": {"name": "Kamnik", "place": "town", "rank": 2, "pop": 13700}}, {"type": "Feature", "geometry": {"type": "Point", "coordinates": [9.73049, 45.7336]}, "properties": {"name": "Alzano Lombardo", "place": "town", "rank": 2, "pop": 13683}}, {"type": "Feature", "geometry": {"type": "Point", "coordinates": [11.93551, 46.79632]}, "properties": {"name": "Bruneck - Brunico", "place": "town", "rank": 2, "pop": 13618}}, {"type": "Feature", "geometry": {"type": "Point", "coordinates": [14.06239, 46.43237]}, "properties": {"name": "Jesenice", "place": "town", "rank": 2, "ele": 576, "pop": 13400}}, {"type": "Feature", "geometry": {"type": "Point", "coordinates": [14.59446, 46.13943]}, "properties": {"name": "Domžale", "place": "town", "rank": 2, "pop": 13372}}, {"type": "Feature", "geometry": {"type": "Point", "coordinates": [7.18785, 43.7846]}, "properties": {"name": "Carros", "place": "town", "rank": 2, "pop": 13277}}, {"type": "Feature", "geometry": {"type": "Point", "coordinates": [8.27456, 44.39927]}, "properties": {"name": "Cairo Montenotte", "place": "town", "rank": 2, "pop": 13269}}, {"type": "Feature", "geometry": {"type": "Point", "coordinates": [13.8003, 47.91859]}, "properties": {"name": "Gmunden", "place": "town", "rank": 2, "ele": 425, "pop": 13104}}, {"type": "Feature", "geometry": {"type": "Point", "coordinates": [11.70843, 47.34495]}, "properties": {"name": "Schwaz", "place": "town", "rank": 2, "pop": 13058}}, {"type": "Feature", "geometry": {"type": "Point", "coordinates": [11.2809, 45.54457]}, "properties": {"name": "Chiampo", "place": "town", "rank": 2, "pop": 13026}}, {"type": "Feature", "geometry": {"type": "Point", "coordinates": [8.70171, 47.20911]}, "properties": {"name": "Richterswil", "place": "town", "rank": 2, "ele": 408, "pop": 13022}}, {"type": "Feature", "geometry": {"type": "Point", "coordinates": [15.33046, 47.12313]}, "properties": {"name": "Gratwein-Straßengel", "place": "town", "rank": 2, "pop": 13000}}, {"type": "Feature", "geometry": {"type": "Point", "coordinates": [10.88638, 45.52091]}, "properties": {"name": "San Pietro in Cariano", "place": "town", "rank": 2, "ele": 151, "pop": 12897}}, {"type": "Feature", "geometry": {"type": "Point", "coordinates": [6.40862, 46.07758]}, "properties": {"name": "Bonneville", "place": "town", "rank": 2, "pop": 12895}}, {"type": "Feature", "geometry": {"type": "Point", "coordinates": [10.21697, 45.60518]}, "properties": {"name": "Concesio", "place": "town", "rank": 2, "pop": 12827}}, {"type": "Feature", "geometry": {"type": "Point", "coordinates": [7.98795, 46.31635]}, "properties": {"name": "Brig", "place": "town", "rank": 2, "ele": 691, "pop": 12823}}, {"type": "Feature", "geometry": {"type": "Point", "coordinates": [7.00863, 43.64114]}, "properties": {"name": "Valbonne", "place": "town", "rank": 2, "pop": 12754}}, {"type": "Feature", "geometry": {"type": "Point", "coordinates": [7.42589, 43.74377]}, "properties": {"name": "Beausoleil", "place": "town", "rank": 2, "pop": 12674}}, {"type": "Feature", "geometry": {"type": "Point", "coordinates": [8.31078, 47.0185]}, "properties": {"name": "Horw", "place": "town", "rank": 2, "pop": 12648}}, {"type": "Feature", "geometry": {"type": "Point", "coordinates": [8.75003, 47.12861]}, "properties": {"name": "Einsiedeln", "place": "town", "rank": 2, "pop": 12622}}, {"type": "Feature", "geometry": {"type": "Point", "coordinates": [14.82972, 47.21474]}, "properties": {"name": "Knittelfeld", "place": "town", "rank": 2, "pop": 12574}}, {"type": "Feature", "geometry": {"type": "Point", "coordinates": [11.20119, 47.67788]}, "properties": {"name": "Murnau am Staffelsee", "place": "town", "rank": 2, "ele": 688, "pop": 12395}}, {"type": "Feature", "geometry": {"type": "Point", "coordinates": [7.45994, 43.76506]}, "properties": {"name": "Roquebrune-Cap-Martin", "place": "town", "rank": 2, "pop": 12371}}, {"type": "Feature", "geometry": {"type": "Point", "coordinates": [16.05179, 48.33117]}, "properties": {"name": "Tulln an der Donau", "place": "town", "rank": 2, "pop": 12357}}, {"type": "Feature", "geometry": {"type": "Point", "coordinates": [5.87679, 45.59841]}, "properties": {"name": "La Motte-Servolex", "place": "town", "rank": 2, "pop": 12299}}, {"type": "Feature", "geometry": {"type": "Point", "coordinates": [10.31686, 45.51424]}, "properties": {"name": "Rezzato", "place": "town", "rank": 2, "pop": 12295}}, {"type": "Feature", "geometry": {"type": "Point", "coordinates": [14.3577, 46.76728]}, "properties": {"name": "Sankt Veit an der Glan", "place": "town", "rank": 2, "pop": 12255}}, {"type": "Feature", "geometry": {"type": "Point", "coordinates": [10.35761, 45.50438]}, "properties": {"name": "Mazzano", "place": "town", "rank": 2, "pop": 12219}}, {"type": "Feature", "geometry": {"type": "Point", "coordinates": [10.43824, 45.58463]}, "properties": {"name": "Gavardo", "place": "town", "rank": 2, "pop": 12206}}, {"type": "Feature", "geometry": {"type": "Point", "coordinates": [9.47641, 47.16276]}, "properties": {"name": "Buchs SG", "place": "town", "rank": 2, "ele": 448, "pop": 12187}}, {"type": "Feature", "geometry": {"type": "Point", "coordinates": [9.64269, 47.27038]}, "properties": {"name": "Rankweil", "place": "town", "rank": 2, "pop": 12150}}, {"type": "Feature", "geometry": {"type": "Point", "coordinates": [14.30675, 46.16527]}, "properties": {"name": "Škofja Loka", "place": "town", "rank": 2, "pop": 12100}}, {"type": "Feature", "geometry": {"type": "Point", "coordinates": [11.34341, 45.61111]}, "properties": {"name": "Cornedo Vicentino", "place": "town", "rank": 2, "pop": 12080}}, {"type": "Feature", "geometry": {"type": "Point", "coordinates": [12.76813, 46.82987]}, "properties": {"name": "Lienz", "place": "town", "rank": 2, "pop": 12077}}, {"type": "Feature", "geometry": {"type": "Point", "coordinates": [11.47069, 45.50843]}, "properties": {"name": "Altavilla Vicentina", "place": "town", "rank": 2, "pop": 12056}}, {"type": "Feature", "geometry": {"type": "Point", "coordinates": [9.64401, 47.33513]}, "properties": {"name": "Götzis", "place": "town", "rank": 2, "ele": 448, "pop": 12041}}, {"type": "Feature", "geometry": {"type": "Point", "coordinates": [7.67747, 46.69195]}, "properties": {"name": "Spiez", "place": "town", "rank": 2, "pop": 12027}}, {"type": "Feature", "geometry": {"type": "Point", "coordinates": [11.83354, 47.79002]}, "properties": {"name": "Miesbach", "place": "town", "rank": 2, "pop": 12001}}, {"type": "Feature", "geometry": {"type": "Point", "coordinates": [7.72305, 45.33202]}, "properties": {"name": "Rivarolo Canavese", "place": "town", "rank": 2, "pop": 11976}}, {"type": "Feature", "geometry": {"type": "Point", "coordinates": [13.64604, 48.00786]}, "properties": {"name": "Vöcklabruck", "place": "town", "rank": 2, "ele": 433, "pop": 11972}}, {"type": "Feature", "geometry": {"type": "Point", "coordinates": [9.5414, 47.37822]}, "properties": {"name": "Altstätten SG", "place": "town", "rank": 2, "pop": 11891}}, {"type": "Feature", "geometry": {"type": "Point", "coordinates": [16.54068, 47.38949]}, "properties": {"name": "Kőszeg", "place": "town", "rank": 2, "pop": 11757}}, {"type": "Feature", "geometry": {"type": "Point", "coordinates": [5.68996, 45.17908]}, "properties": {"name": "Seyssinet-Pariset", "place": "town", "rank": 2, "pop": 11753}}, {"type": "Feature", "geometry": {"type": "Point", "coordinates": [10.83444, 45.52211]}, "properties": {"name": "Sant'Ambrogio di Valpolicella", "place": "town", "rank": 2, "pop": 11737}}, {"type": "Feature", "geometry": {"type": "Point", "coordinates": [8.34359, 44.16915]}, "properties": {"name": "Finale Ligure", "place": "town", "rank": 2, "pop": 11711}}, {"type": "Feature", "geometry": {"type": "Point", "coordinates": [12.7074, 46.17097]}, "properties": {"name": "Maniago / Manià", "place": "town", "rank": 2, "pop": 11708}}, {"type": "Feature", "geometry": {"type": "Point", "coordinates": [13.12608, 47.89425]}, "properties": {"name": "Seekirchen am Wallersee", "place": "town", "rank": 2, "pop": 11708}}, {"type": "Feature", "geometry": {"type": "Point", "coordinates": [5.66303, 45.20665]}, "properties": {"name": "Sassenage", "place": "town", "rank": 2, "pop": 11660}}, {"type": "Feature", "geometry": {"type": "Point", "coordinates": [10.19588, 45.66187]}, "properties": {"name": "Sarezzo", "place": "town", "rank": 2, "pop": 11652}}, {"type": "Feature", "geometry": {"type": "Point", "coordinates": [8.73487, 47.24133]}, "properties": {"name": "Stäfa", "place": "town", "rank": 2, "pop": 11567}}, {"type": "Feature", "geometry": {"type": "Point", "coordinates": [9.75928, 45.74397]}, "properties": {"name": "Nembro", "place": "town", "rank": 2, "pop": 11514}}, {"type": "Feature", "geometry": {"type": "Point", "coordinates": [9.58745, 45.69777]}, "properties": {"name": "Ponte San Pietro", "place": "town", "rank": 2, "ele": 224, "pop": 11500}}, {"type": "Feature", "geometry": {"type": "Point", "coordinates": [10.29831, 45.47158]}, "properties": {"name": "Castenedolo", "place": "town", "rank": 2, "pop": 11461}}, {"type": "Feature", "geometry": {"type": "Point", "coordinates": [6.96889, 46.3179]}, "properties": {"name": "Aigle", "place": "town", "rank": 2, "ele": 415, "pop": 11412}}, {"type": "Feature", "geometry": {"type": "Point", "coordinates": [8.25996, 44.12884]}, "properties": {"name": "Loano", "place": "town", "rank": 2, "pop": 11407}}, {"type": "Feature", "geometry": {"type": "Point", "coordinates": [11.47858, 45.53205]}, "properties": {"name": "Creazzo", "place": "town", "rank": 2, "pop": 11331}}, {"type": "Feature", "geometry": {"type": "Point", "coordinates": [8.33852, 47.08121]}, "properties": {"name": "Ebikon", "place": "town", "rank": 2, "pop": 11322}}, {"type": "Feature", "geometry": {"type": "Point", "coordinates": [11.50758, 45.61184]}, "properties": {"name": "Caldogno", "place": "town", "rank": 2, "pop": 11301}}, {"type": "Feature", "geometry": {"type": "Point", "coordinates": [7.48746, 44.32865]}, "properties": {"name": "Borgo San Dalmazzo", "place": "town", "rank": 2, "pop": 11274}}, {"type": "Feature", "geometry": {"type": "Point", "coordinates": [6.31217, 46.06722]}, "properties": {"name": "La Roche-sur-Foron", "place": "town", "rank": 2, "pop": 11263}}, {"type": "Feature", "geometry": {"type": "Point", "coordinates": [9.82369, 46.7962]}, "properties": {"name": "Davos", "place": "town", "rank": 2, "ele": 1560, "pop": 11211}}, {"type": "Feature", "geometry": {"type": "Point", "coordinates": [16.21481, 47.96555]}, "properties": {"name": "Bad Vöslau", "place": "town", "rank": 2, "pop": 11190}}, {"type": "Feature", "geometry": {"type": "Point", "coordinates": [10.07395, 45.55522]}, "properties": {"name": "Ospitaletto", "place": "town", "rank": 2, "pop": 11086}}, {"type": "Feature", "geometry": {"type": "Point", "coordinates": [6.68453, 45.9233]}, "properties": {"name": "Passy", "place": "town", "rank": 2, "pop": 11068}}, {"type": "Feature", "geometry": {"type": "Point", "coordinates": [12.11, 47.78926]}, "properties": {"name": "Raubling", "place": "town", "rank": 2, "pop": 11000}}, {"type": "Feature", "geometry": {"type": "Point", "coordinates": [6.85691, 46.45375]}, "properties": {"name": "La Tour-de-Peilz", "place": "town", "rank": 2, "ele": 385, "pop": 10974}}, {"type": "Feature", "geometry": {"type": "Point", "coordinates": [13.1401, 46.27701]}, "properties": {"name": "Gemona del Friuli / Glemone", "place": "town", "rank": 2, "pop": 10964}}, {"type": "Feature", "geometry": {"type": "Point", "coordinates": [10.18301, 45.68869]}, "properties": {"name": "Gardone Val Trompia", "place": "town", "rank": 2, "ele": 334, "pop": 10952}}, {"type": "Feature", "geometry": {"type": "Point", "coordinates": [8.17303, 44.00801]}, "properties": {"name": "Alassio", "place": "town", "rank": 2, "pop": 10934}}, {"type": "Feature", "geometry": {"type": "Point", "coordinates": [9.35824, 45.84628]}, "properties": {"name": "Valmadrera", "place": "town", "rank": 2, "pop": 10871}}, {"type": "Feature", "geometry": {"type": "Point", "coordinates": [5.69781, 45.12368]}, "properties": {"name": "Le Pont-de-Claix", "place": "town", "rank": 2, "pop": 10805}}, {"type": "Feature", "geometry": {"type": "Point", "coordinates": [8.8527, 47.25793]}, "properties": {"name": "Rüti ZH", "place": "town", "rank": 2, "pop": 10804}}, {"type": "Feature", "geometry": {"type": "Point", "coordinates": [8.52387, 47.06446]}, "properties": {"name": "Arth", "place": "town", "rank": 2, "pop": 10794}}, {"type": "Feature", "geometry": {"type": "Point", "coordinates": [11.01616, 45.51853]}, "properties": {"name": "Grezzana", "place": "town", "rank": 2, "pop": 10772}}, {"type": "Feature", "geometry": {"type": "Point", "coordinates": [5.05926, 43.99846]}, "properties": {"name": "Pernes-les-Fontaines", "place": "town", "rank": 2, "pop": 10636}}, {"type": "Feature", "geometry": {"type": "Point", "coordinates": [8.91324, 47.27409]}, "properties": {"name": "Wald ZH", "place": "town", "rank": 2, "ele": 615, "pop": 10620}}, {"type": "Feature", "geometry": {"type": "Point", "coordinates": [8.69182, 47.25317]}, "properties": {"name": "Männedorf", "place": "town", "rank": 2, "ele": 419, "pop": 10588}}, {"type": "Feature", "geometry": {"type": "Point", "coordinates": [13.2026, 47.34758]}, "properties": {"name": "Sankt Johann im Pongau", "place": "town", "rank": 2, "pop": 10566}}, {"type": "Feature", "geometry": {"type": "Point", "coordinates": [6.64363, 44.8984]}, "properties": {"name": "Briançon", "place": "town", "rank": 2, "pop": 10561}}, {"type": "Feature", "geometry": {"type": "Point", "coordinates": [5.39706, 43.87579]}, "properties": {"name": "Apt", "place": "town", "rank": 2, "pop": 10536}}, {"type": "Feature", "geometry": {"type": "Point", "coordinates": [6.9704, 43.62039]}, "properties": {"name": "Mouans-Sartoux", "place": "town", "rank": 2, "pop": 10531}}, {"type": "Feature", "geometry": {"type": "Point", "coordinates": [12.34555, 47.85417]}, "properties": {"name": "Prien am Chiemsee", "place": "town", "rank": 2, "pop": 10512}}, {"type": "Feature", "geometry": {"type": "Point", "coordinates": [10.7407, 47.23815]}, "properties": {"name": "Imst", "place": "town", "rank": 2, "ele": 827, "pop": 10504}}, {"type": "Feature", "geometry": {"type": "Point", "coordinates": [7.39839, 45.07794]}, "properties": {"name": "Avigliana", "place": "town", "rank": 2, "pop": 10500}}, {"type": "Feature", "geometry": {"type": "Point", "coordinates": [8.64139, 46.88207]}, "properties": {"name": "Altdorf UR", "place": "town", "rank": 2, "ele": 458, "pop": 10459}}, {"type": "Feature", "geometry": {"type": "Point", "coordinates": [7.67328, 43.78025]}, "properties": {"name": "Bordighera", "place": "town", "rank": 2, "pop": 10456}}, {"type": "Feature", "geometry": {"type": "Point", "coordinates": [13.01584, 46.40537]}, "properties": {"name": "Tolmezzo / Tumieç", "place": "town", "rank": 2, "pop": 10440}}, {"type": "Feature", "geometry": {"type": "Point", "coordinates": [10.28786, 45.58602]}, "properties": {"name": "Nave", "place": "town", "rank": 2, "pop": 10433}}, {"type": "Feature", "geometry": {"type": "Point", "coordinates": [9.73133, 47.47473]}, "properties": {"name": "Lauterach", "place": "town", "rank": 2, "pop": 10433}}, {"type": "Feature", "geometry": {"type": "Point", "coordinates": [8.83961, 45.85245]}, "properties": {"name": "Induno Olona", "place": "town", "rank": 2, "ele": 394, "pop": 10412}}, {"type": "Feature", "geometry": {"type": "Point", "coordinates": [11.99551, 45.90141]}, "properties": {"name": "Valdobbiadene", "place": "town", "rank": 2, "pop": 10388}}, {"type": "Feature", "geometry": {"type": "Point", "coordinates": [7.31342, 43.74314]}, "properties": {"name": "La Trinité", "place": "town", "rank": 2, "pop": 10276}}, {"type": "Feature", "geometry": {"type": "Point", "coordinates": [11.44315, 45.62867]}, "properties": {"name": "Isola Vicentina", "place": "town", "rank": 2, "pop": 10214}}, {"type": "Feature", "geometry": {"type": "Point", "coordinates": [10.9754, 45.85338]}, "properties": {"name": "Mori", "place": "town", "rank": 2, "pop": 10211}}, {"type": "Feature", "geometry": {"type": "Point", "coordinates": [8.24615, 46.89567]}, "properties": {"name": "Sarnen", "place": "town", "rank": 2, "ele": 471, "pop": 10192}}, {"type": "Feature", "geometry": {"type": "Point", "coordinates": [8.50935, 44.33984]}, "properties": {"name": "Albisola Superiore", "place": "town", "rank": 2, "pop": 10163}}, {"type": "Feature", "geometry": {"type": "Point", "coordinates": [7.47433, 44.51813]}, "properties": {"name": "Busca", "place": "town", "rank": 2, "pop": 10159}}, {"type": "Feature", "geometry": {"type": "Point", "coordinates": [12.79632, 47.32396]}, "properties": {"name": "Zell am See", "place": "town", "rank": 2, "ele": 750, "pop": 10131}}, {"type": "Feature", "geometry": {"type": "Point", "coordinates": [12.09715, 46.11098]}, "properties": {"name": "Sedico", "place": "town", "rank": 2, "pop": 10119}}, {"type": "Feature", "geometry": {"type": "Point", "coordinates": [5.74812, 45.1524]}, "properties": {"name": "Eybens", "place": "town", "rank": 2, "pop": 10095}}, {"type": "Feature", "geometry": {"type": "Point", "coordinates": [9.73505, 45.71078]}, "properties": {"name": "Scanzorosciate", "place": "town", "rank": 2, "pop": 10092}}, {"type": "Feature", "geometry": {"type": "Point", "coordinates": [11.5764, 47.68316]}, "properties": {"name": "Lenggries", "place": "town", "rank": 2, "ele": 679, "pop": 10077}}, {"type": "Feature", "geometry": {"type": "Point", "coordinates": [10.52007, 45.60568]}, "properties": {"name": "Salò", "place": "town", "rank": 2, "pop": 10039}}, {"type": "Feature", "geometry": {"type": "Point", "coordinates": [10.19444, 45.63221]}, "properties": {"name": "Villa Carcina", "place": "town", "rank": 2, "pop": 10015}}, {"type": "Feature", "geometry": {"type": "Point", "coordinates": [9.31934, 45.91918]}, "properties": {"name": "Mandello del Lario", "place": "town", "rank": 2, "pop": 10003}}, {"type": "Feature", "geometry": {"type": "Point", "coordinates": [9.56968, 46.13131]}, "properties": {"name": "Morbegno", "place": "town", "rank": 2, "ele": 262, "pop": 10000}}, {"type": "Feature", "geometry": {"type": "Point", "coordinates": [16.0816, 47.72211]}, "properties": {"name": "Neunkirchen", "place": "town", "rank": 2, "pop": 9974}}, {"type": "Feature", "geometry": {"type": "Point", "coordinates": [7.64982, 45.38972]}, "properties": {"name": "Cuorgnè", "place": "town", "rank": 2, "pop": 9891}}, {"type": "Feature", "geometry": {"type": "Point", "coordinates": [12.42868, 47.52241]}, "properties": {"name": "St. Johann in Tirol", "place": "town", "rank": 2, "ele": 659, "pop": 9891}}, {"type": "Feature", "geometry": {"type": "Point", "coordinates": [6.25817, 46.17409]}, "properties": {"name": "Vétraz-Monthoux", "place": "town", "rank": 2, "pop": 9874}}, {"type": "Feature", "geometry": {"type": "Point", "coordinates": [15.27217, 47.4122]}, "properties": {"name": "Bruck an der Mur", "place": "town", "rank": 2, "pop": 9748}}, {"type": "Feature", "geometry": {"type": "Point", "coordinates": [16.17721, 48.20767]}, "properties": {"name": "Purkersdorf", "place": "town", "rank": 2, "ele": 248, "pop": 9684}}, {"type": "Feature", "geometry": {"type": "Point", "coordinates": [13.82252, 47.98256]}, "properties": {"name": "Laakirchen", "place": "town", "rank": 2, "pop": 9600}}, {"type": "Feature", "geometry": {"type": "Point", "coordinates": [14.66011, 47.16941]}, "properties": {"name": "Judenburg", "place": "town", "rank": 2, "pop": 9514}}, {"type": "Feature", "geometry": {"type": "Point", "coordinates": [4.99061, 44.38515]}, "properties": {"name": "Valréas", "place": "town", "rank": 2, "pop": 9346}}, {"type": "Feature", "geometry": {"type": "Point", "coordinates": [10.42303, 45.51057]}, "properties": {"name": "Bedizzole", "place": "town", "rank": 2, "pop": 9320}}, {"type": "Feature", "geometry": {"type": "Point", "coordinates": [14.04506, 46.61519]}, "properties": {"name": "Velden", "place": "town", "rank": 2, "pop": 9127}}, {"type": "Feature", "geometry": {"type": "Point", "coordinates": [12.82184, 47.84904]}, "properties": {"name": "Teisendorf", "place": "town", "rank": 2, "pop": 9115}}, {"type": "Feature", "geometry": {"type": "Point", "coordinates": [5.96433, 45.55863]}, "properties": {"name": "La Ravoire", "place": "town", "rank": 2, "pop": 9042}}, {"type": "Feature", "geometry": {"type": "Point", "coordinates": [7.71212, 45.38195]}, "properties": {"name": "Castellamonte", "place": "town", "rank": 2, "pop": 8979}}, {"type": "Feature", "geometry": {"type": "Point", "coordinates": [13.72108, 48.01146]}, "properties": {"name": "Attnang-Puchheim", "place": "town", "rank": 2, "pop": 8839}}, {"type": "Feature", "geometry": {"type": "Point", "coordinates": [14.22338, 45.91781]}, "properties": {"name": "Logatec", "place": "town", "rank": 2, "pop": 8800}}, {"type": "Feature", "geometry": {"type": "Point", "coordinates": [15.62217, 47.21742]}, "properties": {"name": "Weiz", "place": "town", "rank": 2, "pop": 8799}}, {"type": "Feature", "geometry": {"type": "Point", "coordinates": [13.22211, 46.21565]}, "properties": {"name": "Tarcento / Tarcint", "place": "town", "rank": 2, "pop": 8716}}, {"type": "Feature", "geometry": {"type": "Point", "coordinates": [16.10936, 47.94559]}, "properties": {"name": "Berndorf", "place": "town", "rank": 2, "ele": 314, "pop": 8698}}, {"type": "Feature", "geometry": {"type": "Point", "coordinates": [9.94966, 45.88709]}, "properties": {"name": "Clusone", "place": "town", "rank": 2, "pop": 8657}}, {"type": "Feature", "geometry": {"type": "Point", "coordinates": [6.87, 45.9231]}, "properties": {"name": "Chamonix-Mont-Blanc", "place": "town", "rank": 2, "pop": 8642}}, {"type": "Feature", "geometry": {"type": "Point", "coordinates": [12.39115, 47.44636]}, "properties": {"name": "Kitzbühel", "place": "town", "rank": 2, "pop": 8574}}, {"type": "Feature", "geometry": {"type": "Point", "coordinates": [8.43131, 47.14081]}, "properties": {"name": "Rotkreuz", "place": "town", "rank": 2, "ele": 430, "pop": 8518}}, {"type": "Feature", "geometry": {"type": "Point", "coordinates": [10.04879, 45.65982]}, "properties": {"name": "Iseo", "place": "town", "rank": 2, "pop": 8410}}, {"type": "Feature", "geometry": {"type": "Point", "coordinates": [15.00655, 47.42511]}, "properties": {"name": "Trofaiach", "place": "town", "rank": 2, "pop": 8385}}, {"type": "Feature", "geometry": {"type": "Point", "coordinates": [12.64282, 47.82338]}, "properties": {"name": "Siegsdorf", "place": "town", "rank": 2, "ele": 600, "pop": 8382}}, {"type": "Feature", "geometry": {"type": "Point", "coordinates": [11.83941, 47.75073]}, "properties": {"name": "Hausham", "place": "town", "rank": 2, "pop": 8291}}, {"type": "Feature", "geometry": {"type": "Point", "coordinates": [8.3661, 46.95706]}, "properties": {"name": "Stans", "place": "town", "rank": 2, "ele": 452, "pop": 8207}}, {"type": "Feature", "geometry": {"type": "Point", "coordinates": [9.02902, 45.83552]}, "properties": {"name": "Chiasso", "place": "town", "rank": 2, "ele": 230, "pop": 8202}}, {"type": "Feature", "geometry": {"type": "Point", "coordinates": [14.29807, 45.96634]}, "properties": {"name": "Vrhnika", "place": "town", "rank": 2, "pop": 8200}}, {"type": "Feature", "geometry": {"type": "Point", "coordinates": [13.0106, 46.16005]}, "properties": {"name": "San Daniele del Friuli / San Denêl", "place": "town", "rank": 2, "pop": 8013}}, {"type": "Feature", "geometry": {"type": "Point", "coordinates": [10.17318, 46.21567]}, "properties": {"name": "Tirano", "place": "town", "rank": 2, "ele": 441, "pop": 8000}}, {"type": "Feature", "geometry": {"type": "Point", "coordinates": [8.37114, 45.61424]}, "properties": {"name": "Gattinara", "place": "town", "rank": 2, "pop": 7987}}, {"type": "Feature", "geometry": {"type": "Point", "coordinates": [15.21378, 46.81463]}, "properties": {"name": "Deutschlandsberg", "place": "town", "rank": 2, "pop": 7983}}, {"type": "Feature", "geometry": {"type": "Point", "coordinates": [9.34514, 45.79128]}, "properties": {"name": "Oggiono", "place": "town", "rank": 2, "pop": 7960}}, {"type": "Feature", "geometry": {"type": "Point", "coordinates": [11.26143, 47.44178]}, "properties": {"name": "Mittenwald", "place": "town", "rank": 2, "pop": 7926}}, {"type": "Feature", "geometry": {"type": "Point", "coordinates": [11.30178, 46.00913]}, "properties": {"name": "Levico Terme", "place": "town", "rank": 2, "pop": 7915}}, {"type": "Feature", "geometry": {"type": "Point", "coordinates": [13.00201, 47.63302]}, "properties": {"name": "Berchtesgaden", "place": "town", "rank": 2, "ele": 572, "pop": 7741}}, {"type": "Feature", "geometry": {"type": "Point", "coordinates": [5.94438, 44.19635]}, "properties": {"name": "Sisteron", "place": "town", "rank": 2, "pop": 7699}}, {"type": "Feature", "geometry": {"type": "Point", "coordinates": [10.60674, 45.64056]}, "properties": {"name": "Maderno", "place": "town", "rank": 2, "pop": 7554}}, {"type": "Feature", "geometry": {"type": "Point", "coordinates": [6.34517, 45.27755]}, "properties": {"name": "Saint-Jean-de-Maurienne", "place": "town", "rank": 2, "pop": 7536}}, {"type": "Feature", "geometry": {"type": "Point", "coordinates": [11.59073, 47.29358]}, "properties": {"name": "Wattens", "place": "town", "rank": 2, "ele": 564, "pop": 7503}}, {"type": "Feature", "geometry": {"type": "Point", "coordinates": [15.07907, 46.50914]}, "properties": {"name": "Slovenj Gradec", "place": "town", "rank": 2, "pop": 7500}}, {"type": "Feature", "geometry": {"type": "Point", "coordinates": [14.30062, 46.52653]}, "properties": {"name": "Ferlach", "place": "town", "rank": 2, "pop": 7450}}, {"type": "Feature", "geometry": {"type": "Point", "coordinates": [15.57278, 46.39194]}, "properties": {"name": "Slovenska Bistrica", "place": "town", "rank": 2, "pop": 7400}}, {"type": "Feature", "geometry": {"type": "Point", "coordinates": [10.57046, 47.14241]}, "properties": {"name": "Landeck", "place": "town", "rank": 2, "ele": 817, "pop": 7336}}, {"type": "Feature", "geometry": {"type": "Point", "coordinates": [14.75492, 47.1912]}, "properties": {"name": "Zeltweg", "place": "town", "rank": 2, "ele": 659, "pop": 7327}}, {"type": "Feature", "geometry": {"type": "Point", "coordinates": [7.88119, 46.29131]}, "properties": {"name": "Visp", "place": "town", "rank": 2, "ele": 658, "pop": 7281}}, {"type": "Feature", "geometry": {"type": "Point", "coordinates": [14.57121, 46.16376]}, "properties": {"name": "Mengeš", "place": "town", "rank": 2, "pop": 7257}}, {"type": "Feature", "geometry": {"type": "Point", "coordinates": [8.2542, 45.81458]}, "properties": {"name": "Varallo", "place": "town", "rank": 2, "ele": 450, "pop": 7253}}, {"type": "Feature", "geometry": {"type": "Point", "coordinates": [8.41265, 44.29254]}, "properties": {"name": "Quiliano", "place": "town", "rank": 2, "ele": 32, "pop": 7232}}, {"type": "Feature", "geometry": {"type": "Point", "coordinates": [8.77808, 47.20031]}, "properties": {"name": "Pfäffikon SZ", "place": "town", "rank": 2, "ele": 416, "pop": 7222}}, {"type": "Feature", "geometry": {"type": "Point", "coordinates": [12.00708, 47.77459]}, "properties": {"name": "Bad Feilnbach", "place": "town", "rank": 2, "pop": 7199}}, {"type": "Feature", "geometry": {"type": "Point", "coordinates": [6.76953, 45.61861]}, "properties": {"name": "Bourg-Saint-Maurice", "place": "town", "rank": 2, "ele": 840, "pop": 7187}}, {"type": "Feature", "geometry": {"type": "Point", "coordinates": [16.39805, 47.73684]}, "properties": {"name": "Mattersburg", "place": "town", "rank": 2, "ele": 238, "pop": 7177}}, {"type": "Feature", "geometry": {"type": "Point", "coordinates": [13.21709, 47.4168]}, "properties": {"name": "Bischofshofen", "place": "town", "rank": 2, "pop": 7134}}, {"type": "Feature", "geometry": {"type": "Point", "coordinates": [7.36726, 44.46594]}, "properties": {"name": "Dronero", "place": "town", "rank": 2, "pop": 7043}}, {"type": "Feature", "geometry": {"type": "Point", "coordinates": [11.77174, 47.39154]}, "properties": {"name": "Jenbach", "place": "town", "rank": 2, "ele": 563, "pop": 7021}}, {"type": "Feature", "geometry": {"type": "Point", "coordinates": [9.40074, 46.32007]}, "properties": {"name": "Chiavenna", "place": "town", "rank": 2, "ele": 333, "pop": 7000}}, {"type": "Feature", "geometry": {"type": "Point", "coordinates": [14.65548, 45.95718]}, "properties": {"name": "Grosuplje", "place": "town", "rank": 2, "pop": 7000}}, {"type": "Feature", "geometry": {"type": "Point", "coordinates": [14.96229, 46.54465]}, "properties": {"name": "Ravne na Koroškem", "place": "town", "rank": 2, "pop": 7000}}, {"type": "Feature", "geometry": {"type": "Point", "coordinates": [11.4566, 46.05335]}, "properties": {"name": "Borgo Valsugana", "place": "town", "rank": 2, "pop": 6945}}, {"type": "Feature", "geometry": {"type": "Point", "coordinates": [15.67238, 47.60535]}, "properties": {"name": "Mürzzuschlag", "place": "town", "rank": 2, "pop": 6842}}, {"type": "Feature", "geometry": {"type": "Point", "coordinates": [14.24205, 47.56768]}, "properties": {"name": "Liezen", "place": "town", "rank": 2, "pop": 6803}}, {"type": "Feature", "geometry": {"type": "Point", "coordinates": [5.14087, 44.36119]}, "properties": {"name": "Nyons", "place": "town", "rank": 2, "pop": 6771}}, {"type": "Feature", "geometry": {"type": "Point", "coordinates": [13.10606, 47.17031]}, "properties": {"name": "Bad Hofgastein", "place": "town", "rank": 2, "pop": 6726}}, {"type": "Feature", "geometry": {"type": "Point", "coordinates": [9.0759, 45.84139]}, "properties": {"name": "Cernobbio", "place": "town", "rank": 2, "pop": 6662}}, {"type": "Feature", "geometry": {"type": "Point", "coordinates": [15.32602, 47.27153]}, "properties": {"name": "Frohnleiten", "place": "town", "rank": 2, "pop": 6655}}, {"type": "Feature", "geometry": {"type": "Point", "coordinates": [16.07709, 48.17921]}, "properties": {"name": "Pressbaum", "place": "town", "rank": 2, "ele": 315, "pop": 6568}}, {"type": "Feature", "geometry": {"type": "Point", "coordinates": [13.68679, 47.39404]}, "properties": {"name": "Schladming", "place": "town", "rank": 2, "ele": 745, "pop": 6538}}, {"type": "Feature", "geometry": {"type": "Point", "coordinates": [14.83142, 46.05757]}, "properties": {"name": "Litija", "place": "town", "rank": 2, "pop": 6500}}, {"type": "Feature", "geometry": {"type": "Point", "coordinates": [14.99527, 46.13422]}, "properties": {"name": "Zagorje ob Savi", "place": "town", "rank": 2, "pop": 6500}}, {"type": "Feature", "geometry": {"type": "Point", "coordinates": [15.60584, 48.10506]}, "properties": {"name": "Wilhelmsburg", "place": "town", "rank": 2, "pop": 6489}}, {"type": "Feature", "geometry": {"type": "Point", "coordinates": [16.21242, 47.28615]}, "properties": {"name": "Oberwart/Felsőőr", "place": "town", "rank": 2, "pop": 6442}}, {"type": "Feature", "geometry": {"type": "Point", "coordinates": [6.49582, 44.56418]}, "properties": {"name": "Embrun", "place": "town", "rank": 2, "pop": 6404}}, {"type": "Feature", "geometry": {"type": "Point", "coordinates": [10.77348, 46.62807]}, "properties": {"name": "Schlanders - Silandro", "place": "town", "rank": 2, "ele": 721, "pop": 6371}}, {"type": "Feature", "geometry": {"type": "Point", "coordinates": [13.51865, 46.81907]}, "properties": {"name": "Seeboden", "place": "town", "rank": 2, "ele": 618, "pop": 6325}}, {"type": "Feature", "geometry": {"type": "Point", "coordinates": [9.37382, 46.13631]}, "properties": {"name": "Colico", "place": "town", "rank": 2, "pop": 6257}}, {"type": "Feature", "geometry": {"type": "Point", "coordinates": [8.08208, 43.90991]}, "properties": {"name": "Diano Marina", "place": "town", "rank": 2, "pop": 6159}}, {"type": "Feature", "geometry": {"type": "Point", "coordinates": [15.1352, 48.05767]}, "properties": {"name": "Purgstall", "place": "town", "rank": 2, "pop": 6154}}, {"type": "Feature", "geometry": {"type": "Point", "coordinates": [15.93741, 47.67579]}, "properties": {"name": "Gloggnitz", "place": "town", "rank": 2, "pop": 6062}}, {"type": "Feature", "geometry": {"type": "Point", "coordinates": [9.51031, 47.16634]}, "properties": {"name": "Schaan", "place": "town", "rank": 2, "ele": 450, "pop": 6002}}, {"type": "Feature", "geometry": {"type": "Point", "coordinates": [10.13599, 46.53817]}, "properties": {"name": "Livigno", "place": "town", "rank": 2, "ele": 1816, "pop": 6000}}, {"type": "Feature", "geometry": {"type": "Point", "coordinates": [14.0273, 46.0024]}, "properties": {"name": "Idrija", "place": "town", "rank": 2, "ele": 334, "pop": 6000}}, {"type": "Feature", "geometry": {"type": "Point", "coordinates": [14.17202, 46.34351]}, "properties": {"name": "Radovljica", "place": "town", "rank": 2, "pop": 6000}}, {"type": "Feature", "geometry": {"type": "Point", "coordinates": [5.07574, 44.24076]}, "properties": {"name": "Vaison-la-Romaine", "place": "town", "rank": 2, "pop": 5929}}, {"type": "Feature", "geometry": {"type": "Point", "coordinates": [12.13735, 46.53833]}, "properties": {"name": "Cortina d'Ampezzo", "place": "town", "rank": 2, "pop": 5907}}, {"type": "Feature", "geometry": {"type": "Point", "coordinates": [7.74925, 46.02121]}, "properties": {"name": "Zermatt", "place": "town", "rank": 2, "ele": 1608, "pop": 5786}}, {"type": "Feature", "geometry": {"type": "Point", "coordinates": [11.43194, 46.89632]}, "properties": {"name": "Sterzing - Vipiteno", "place": "town", "rank": 2, "ele": 948, "pop": 5785}}, {"type": "Feature", "geometry": {"type": "Point", "coordinates": [9.40993, 47.32995]}, "properties": {"name": "Appenzell", "place": "town", "rank": 2, "ele": 778, "pop": 5751}}, {"type": "Feature", "geometry": {"type": "Point", "coordinates": [10.7188, 47.48911]}, "properties": {"name": "Reutte", "place": "town", "rank": 2, "ele": 853, "pop": 5719}}, {"type": "Feature", "geometry": {"type": "Point", "coordinates": [15.08174, 46.14562]}, "properties": {"name": "Hrastnik", "place": "town", "rank": 2, "ele": 296, "pop": 5700}}, {"type": "Feature", "geometry": {"type": "Point", "coordinates": [15.44986, 47.50497]}, "properties": {"name": "Kindberg", "place": "town", "rank": 2, "pop": 5546}}, {"type": "Feature", "geometry": {"type": "Point", "coordinates": [7.85851, 46.68552]}, "properties": {"name": "Interlaken", "place": "town", "rank": 2, "ele": 568, "pop": 5504}}, {"type": "Feature", "geometry": {"type": "Point", "coordinates": [9.0674, 47.04221]}, "properties": {"name": "Glarus", "place": "town", "rank": 2, "ele": 474, "pop": 5500}}, {"type": "Feature", "geometry": {"type": "Point", "coordinates": [8.57512, 45.77219]}, "properties": {"name": "Angera", "place": "town", "rank": 2, "pop": 5477}}, {"type": "Feature", "geometry": {"type": "Point", "coordinates": [8.55078, 47.05122]}, "properties": {"name": "Goldau", "place": "town", "rank": 2, "pop": 5437}}, {"type": "Feature", "geometry": {"type": "Point", "coordinates": [7.62842, 43.8151]}, "properties": {"name": "Camporosso", "place": "town", "rank": 2, "pop": 5427}}, {"type": "Feature", "geometry": {"type": "Point", "coordinates": [11.06407, 47.59734]}, "properties": {"name": "Oberammergau", "place": "town", "rank": 2, "pop": 5379}}, {"type": "Feature", "geometry": {"type": "Point", "coordinates": [9.90312, 45.81153]}, "properties": {"name": "Gandino", "place": "town", "rank": 2, "pop": 5367}}, {"type": "Feature", "geometry": {"type": "Point", "coordinates": [12.15588, 47.4505]}, "properties": {"name": "Hopfgarten im Brixental", "place": "town", "rank": 2, "pop": 5365}}, {"type": "Feature", "geometry": {"type": "Point", "coordinates": [16.12342, 47.37254]}, "properties": {"name": "Pinkafeld", "place": "town", "rank": 2, "pop": 5272}}, {"type": "Feature", "geometry": {"type": "Point", "coordinates": [9.5228, 47.13929]}, "properties": {"name": "Vaduz", "place": "town", "rank": 2, "ele": 455, "pop": 5229}}, {"type": "Feature", "geometry": {"type": "Point", "coordinates": [14.11006, 46.36842]}, "properties": {"name": "Bled", "place": "town", "rank": 2, "pop": 5200}}, {"type": "Feature", "geometry": {"type": "Point", "coordinates": [14.35856, 47.52423]}, "properties": {"name": "Rottenmann", "place": "town", "rank": 2, "pop": 5111}}, {"type": "Feature", "geometry": {"type": "Point", "coordinates": [14.41307, 46.14023]}, "properties": {"name": "Medvode", "place": "town", "rank": 2, "pop": 5100}}, {"type": "Feature", "geometry": {"type": "Point", "coordinates": [13.57837, 46.50526]}, "properties": {"name": "Tarvisio / Tarvis / Trbiž", "place": "town", "rank": 2, "pop": 5071}}, {"type": "Feature", "geometry": {"type": "Point", "coordinates": [15.16321, 46.25178]}, "properties": {"name": "Žalec", "place": "town", "rank": 2, "pop": 5000}}, {"type": "Feature", "geometry": {"type": "Point", "coordinates": [15.42302, 46.3382]}, "properties": {"name": "Slovenske Konjice", "place": "town", "rank": 2, "pop": 5000}}, {"type": "Feature", "geometry": {"type": "Point", "coordinates": [9.83924, 46.4979]}, "properties": {"name": "St. Moritz", "place": "town", "rank": 2, "ele": 1822, "pop": 4997}}, {"type": "Feature", "geometry": {"type": "Point", "coordinates": [14.46988, 46.87138]}, "properties": {"name": "Althofen", "place": "town", "rank": 2, "pop": 4950}}, {"type": "Feature", "geometry": {"type": "Point", "coordinates": [15.085, 47.06449]}, "properties": {"name": "Köflach", "place": "town", "rank": 2, "pop": 4856}}, {"type": "Feature", "geometry": {"type": "Point", "coordinates": [9.66473, 45.83863]}, "properties": {"name": "San Pellegrino Terme", "place": "town", "rank": 2, "pop": 4827}}, {"type": "Feature", "geometry": {"type": "Point", "coordinates": [13.46278, 47.38467]}, "properties": {"name": "Radstadt", "place": "town", "rank": 2, "ele": 858, "pop": 4826}}, {"type": "Feature", "geometry": {"type": "Point", "coordinates": [13.78358, 47.6095]}, "properties": {"name": "Bad Aussee", "place": "town", "rank": 2, "ele": 659, "pop": 4762}}, {"type": "Feature", "geometry": {"type": "Point", "coordinates": [14.63405, 46.66042]}, "properties": {"name": "Völkermarkt", "place": "town", "rank": 2, "pop": 4747}}, {"type": "Feature", "geometry": {"type": "Point", "coordinates": [14.20914, 48.0348]}, "properties": {"name": "Bad Hall", "place": "town", "rank": 2, "pop": 4727}}, {"type": "Feature", "geometry": {"type": "Point", "coordinates": [14.91698, 46.54606]}, "properties": {"name": "Prevalje", "place": "town", "rank": 2, "ele": 415, "pop": 4700}}, {"type": "Feature", "geometry": {"type": "Point", "coordinates": [15.30371, 46.00974]}, "properties": {"name": "Sevnica", "place": "town", "rank": 2, "pop": 4700}}, {"type": "Feature", "geometry": {"type": "Point", "coordinates": [15.39379, 46.21684]}, "properties": {"name": "Šentjur", "place": "town", "rank": 2, "pop": 4700}}, {"type": "Feature", "geometry": {"type": "Point", "coordinates": [8.61014, 45.81546]}, "properties": {"name": "Ispra", "place": "town", "rank": 2, "pop": 4686}}, {"type": "Feature", "geometry": {"type": "Point", "coordinates": [11.56635, 46.63992]}, "properties": {"name": "Klausen - Chiusa", "place": "town", "rank": 2, "ele": 525, "pop": 4613}}, {"type": "Feature", "geometry": {"type": "Point", "coordinates": [11.30758, 47.11064]}, "properties": {"name": "Neustift im Stubaital", "place": "town", "rank": 2, "ele": 994, "pop": 4600}}, {"type": "Feature", "geometry": {"type": "Point", "coordinates": [14.77472, 47.96097]}, "properties": {"name": "Waidhofen an der Ybbs", "place": "town", "rank": 2, "pop": 4559}}, {"type": "Feature", "geometry": {"type": "Point", "coordinates": [15.51394, 46.53867]}, "properties": {"name": "Ruše", "place": "town", "rank": 2, "ele": 308, "pop": 4500}}, {"type": "Feature", "geometry": {"type": "Point", "coordinates": [15.13766, 48.12989]}, "properties": {"name": "Wieselburg", "place": "town", "rank": 2, "pop": 4408}}, {"type": "Feature", "geometry": {"type": "Point", "coordinates": [14.78877, 46.96464]}, "properties": {"name": "Bad Sankt Leonhard im Lavanttal", "place": "town", "rank": 2, "ele": 714, "pop": 4386}}, {"type": "Feature", "geometry": {"type": "Point", "coordinates": [10.33326, 46.18063]}, "properties": {"name": "Edolo", "place": "town", "rank": 2, "ele": 720, "pop": 4291}}, {"type": "Feature", "geometry": {"type": "Point", "coordinates": [15.16749, 48.00539]}, "properties": {"name": "Scheibbs", "place": "town", "rank": 2, "pop": 4275}}, {"type": "Feature", "geometry": {"type": "Point", "coordinates": [11.34906, 47.1531]}, "properties": {"name": "Fulpmes", "place": "town", "rank": 2, "ele": 937, "pop": 4200}}, {"type": "Feature", "geometry": {"type": "Point", "coordinates": [12.03498, 46.28215]}, "properties": {"name": "Agordo", "place": "town", "rank": 2, "pop": 4124}}, {"type": "Feature", "geometry": {"type": "Point", "coordinates": [14.12442, 47.90519]}, "properties": {"name": "Kirchdorf an der Krems", "place": "town", "rank": 2, "pop": 4099}}, {"type": "Feature", "geometry": {"type": "Point", "coordinates": [10.37747, 46.46767]}, "properties": {"name": "Bormio", "place": "town", "rank": 2, "ele": 1225, "pop": 4096}}, {"type": "Feature", "geometry": {"type": "Point", "coordinates": [11.75433, 47.70992]}, "properties": {"name": "Tegernsee", "place": "town", "rank": 2, "pop": 3944}}, {"type": "Feature", "geometry": {"type": "Point", "coordinates": [15.00715, 45.90794]}, "properties": {"name": "Trebnje", "place": "town", "rank": 2, "pop": 3927}}, {"type": "Feature", "geometry": {"type": "Point", "coordinates": [15.96918, 47.28094]}, "properties": {"name": "Hartberg", "place": "town", "rank": 2, "pop": 3920}}, {"type": "Feature", "geometry": {"type": "Point", "coordinates": [14.30954, 46.36367]}, "properties": {"name": "Tržič", "place": "town", "rank": 2, "pop": 3900}}, {"type": "Feature", "geometry": {"type": "Point", "coordinates": [11.86387, 47.16722]}, "properties": {"name": "Mayrhofen", "place": "town", "rank": 2, "ele": 633, "pop": 3883}}, {"type": "Feature", "geometry": {"type": "Point", "coordinates": [15.31748, 47.77174]}, "properties": {"name": "Mariazell", "place": "town", "rank": 2, "pop": 3811}}, {"type": "Feature", "geometry": {"type": "Point", "coordinates": [12.3753, 46.42871]}, "properties": {"name": "Pieve di Cadore", "place": "town", "rank": 2, "pop": 3794}}, {"type": "Feature", "geometry": {"type": "Point", "coordinates": [14.88571, 47.54208]}, "properties": {"name": "Eisenerz", "place": "town", "rank": 2, "pop": 3742}}, {"type": "Feature", "geometry": {"type": "Point", "coordinates": [13.2253, 47.94502]}, "properties": {"name": "Neumarkt am Wallersee", "place": "town", "rank": 2, "pop": 3741}}, {"type": "Feature", "geometry": {"type": "Point", "coordinates": [14.16913, 47.11234]}, "properties": {"name": "Murau", "place": "town", "rank": 2, "ele": 829, "pop": 3714}}, {"type": "Feature", "geometry": {"type": "Point", "coordinates": [15.12629, 47.07262]}, "properties": {"name": "Bärnbach", "place": "town", "rank": 2, "pop": 3650}}, {"type": "Feature", "geometry": {"type": "Point", "coordinates": [13.81038, 47.12611]}, "properties": {"name": "Tamsweg", "place": "town", "rank": 2, "pop": 3606}}, {"type": "Feature", "geometry": {"type": "Point", "coordinates": [14.11062, 46.05107]}, "properties": {"name": "Žiri", "place": "town", "rank": 2, "pop": 3600}}, {"type": "Feature", "geometry": {"type": "Point", "coordinates": [13.73334, 46.18292]}, "properties": {"name": "Tolmin", "place": "town", "rank": 2, "pop": 3600}}, {"type": "Feature", "geometry": {"type": "Point", "coordinates": [15.23547, 46.1538]}, "properties": {"name": "Laško", "place": "town", "rank": 2, "pop": 3500}}, {"type": "Feature", "geometry": {"type": "Point", "coordinates": [11.00728, 46.96663]}, "properties": {"name": "Sölden", "place": "town", "rank": 2, "ele": 1368, "pop": 3488}}, {"type": "Feature", "geometry": {"type": "Point", "coordinates": [14.85215, 46.5195]}, "properties": {"name": "Mežica", "place": "town", "rank": 2, "pop": 3400}}, {"type": "Feature", "geometry": {"type": "Point", "coordinates": [13.57149, 46.80513]}, "properties": {"name": "Millstatt", "place": "town", "rank": 2, "ele": 611, "pop": 3334}}, {"type": "Feature", "geometry": {"type": "Point", "coordinates": [9.42399, 45.89606]}, "properties": {"name": "Ballabio", "place": "town", "rank": 2, "pop": 3330}}, {"type": "Feature", "geometry": {"type": "Point", "coordinates": [11.46657, 47.09075]}, "properties": {"name": "Steinach am Brenner", "place": "town", "rank": 2, "ele": 1048, "pop": 3314}}, {"type": "Feature", "geometry": {"type": "Point", "coordinates": [12.282, 46.73278]}, "properties": {"name": "Innichen - San Candido", "place": "town", "rank": 2, "pop": 3294}}, {"type": "Feature", "geometry": {"type": "Point", "coordinates": [14.16931, 46.22579]}, "properties": {"name": "Železniki", "place": "town", "rank": 2, "pop": 3100}}, {"type": "Feature", "geometry": {"type": "Point", "coordinates": [15.02355, 46.58963]}, "properties": {"name": "Dravograd", "place": "town", "rank": 2, "ele": 390, "pop": 3088}}, {"type": "Feature", "geometry": {"type": "Point", "coordinates": [12.44304, 46.55116]}, "properties": {"name": "Auronzo di Cadore", "place": "town", "rank": 2, "pop": 3028}}, {"type": "Feature", "geometry": {"type": "Point", "coordinates": [9.43908, 46.69724]}, "properties": {"name": "Thusis", "place": "town", "rank": 2, "ele": 720, "pop": 3000}}, {"type": "Feature", "geometry": {"type": "Point", "coordinates": [14.14482, 46.63595]}, "properties": {"name": "Pörtschach", "place": "town", "rank": 2, "pop": 2937}}, {"type": "Feature", "geometry": {"type": "Point", "coordinates": [15.39002, 46.37164]}, "properties": {"name": "Zreče", "place": "town", "rank": 2, "pop": 2935}}, {"type": "Feature", "geometry": {"type": "Point", "coordinates": [15.04595, 46.37739]}, "properties": {"name": "Šoštanj", "place": "town", "rank": 2, "pop": 2900}}, {"type": "Feature", "geometry": {"type": "Point", "coordinates": [11.0519, 47.66592]}, "properties": {"name": "Bad Kohlgrub", "place": "town", "rank": 2, "ele": 828, "pop": 2900}}, {"type": "Feature", "geometry": {"type": "Point", "coordinates": [11.87723, 47.43024]}, "properties": {"name": "Brixlegg", "place": "town", "rank": 2, "pop": 2840}}, {"type": "Feature", "geometry": {"type": "Point", "coordinates": [15.91241, 47.78956]}, "properties": {"name": "Puchberg am Schneeberg", "place": "town", "rank": 2, "pop": 2812}}, {"type": "Feature", "geometry": {"type": "Point", "coordinates": [11.90808, 45.90782]}, "properties": {"name": "Alano di Piave", "place": "town", "rank": 2, "pop": 2773}}, {"type": "Feature", "geometry": {"type": "Point", "coordinates": [15.59662, 48.01498]}, "properties": {"name": "Lilienfeld", "place": "town", "rank": 2, "pop": 2618}}, {"type": "Feature", "geometry": {"type": "Point", "coordinates": [10.9205, 47.39865]}, "properties": {"name": "Ehrwald", "place": "town", "rank": 2, "ele": 994, "pop": 2554}}, {"type": "Feature", "geometry": {"type": "Point", "coordinates": [6.65136, 44.3862]}, "properties": {"name": "Barcelonnette", "place": "town", "rank": 2, "pop": 2539}}, {"type": "Feature", "geometry": {"type": "Point", "coordinates": [15.95964, 47.8978]}, "properties": {"name": "Pernitz", "place": "town", "rank": 2, "ele": 430, "pop": 2478}}, {"type": "Feature", "geometry": {"type": "Point", "coordinates": [12.53875, 47.00106]}, "properties": {"name": "Matrei in Osttirol", "place": "town", "rank": 2, "pop": 2466}}, {"type": "Feature", "geometry": {"type": "Point", "coordinates": [9.20335, 46.77303]}, "properties": {"name": "Ilanz", "place": "town", "rank": 2, "ele": 702, "pop": 2431}}, {"type": "Feature", "geometry": {"type": "Point", "coordinates": [15.18188, 46.06613]}, "properties": {"name": "Radeče", "place": "town", "rank": 2, "ele": 194, "pop": 2296}}, {"type": "Feature", "geometry": {"type": "Point", "coordinates": [14.40523, 46.95206]}, "properties": {"name": "Friesach", "place": "town", "rank": 2, "pop": 2238}}, {"type": "Feature", "geometry": {"type": "Point", "coordinates": [14.33139, 46.89554]}, "properties": {"name": "Straßburg", "place": "town", "rank": 2, "ele": 642, "pop": 2138}}, {"type": "Feature", "geometry": {"type": "Point", "coordinates": [12.41803, 46.74729]}, "properties": {"name": "Sillian", "place": "town", "rank": 2, "ele": 1103, "pop": 2086}}, {"type": "Feature", "geometry": {"type": "Point", "coordinates": [13.70712, 46.54872]}, "properties": {"name": "Arnoldstein", "place": "town", "rank": 2, "ele": 578, "pop": 2035}}, {"type": "Feature", "geometry": {"type": "Point", "coordinates": [15.77119, 48.03482]}, "properties": {"name": "Hainfeld", "place": "town", "rank": 2, "pop": 2025}}, {"type": "Feature", "geometry": {"type": "Point", "coordinates": [15.83402, 47.30289]}, "properties": {"name": "Pöllau", "place": "town", "rank": 2, "pop": 1981}}, {"type": "Feature", "geometry": {"type": "Point", "coordinates": [11.95389, 45.91668]}, "properties": {"name": "Segusino", "place": "town", "rank": 2, "pop": 1980}}, {"type": "Feature", "geometry": {"type": "Point", "coordinates": [13.7107, 46.80075]}, "properties": {"name": "Radenthein", "place": "town", "rank": 2, "pop": 1974}}, {"type": "Feature", "geometry": {"type": "Point", "coordinates": [12.4837, 47.28152]}, "properties": {"name": "Mittersill", "place": "town", "rank": 2, "pop": 1900}}, {"type": "Feature", "geometry": {"type": "Point", "coordinates": [11.93055, 45.921]}, "properties": {"name": "Quero", "place": "town", "rank": 2, "pop": 1807}}, {"type": "Feature", "geometry": {"type": "Point", "coordinates": [13.66141, 46.70378]}, "properties": {"name": "Feistritz an der Drau", "place": "town", "rank": 2, "pop": 1739}}, {"type": "Feature", "geometry": {"type": "Point", "coordinates": [11.88199, 47.2336]}, "properties": {"name": "Zell am Ziller", "place": "town", "rank": 2, "ele": 575, "pop": 1723}}, {"type": "Feature", "geometry": {"type": "Point", "coordinates": [13.00436, 46.67847]}, "properties": {"name": "Kötschach", "place": "town", "rank": 2, "pop": 1612}}, {"type": "Feature", "geometry": {"type": "Point", "coordinates": [13.55242, 46.33858]}, "properties": {"name": "Bovec", "place": "town", "rank": 2, "pop": 1600}}, {"type": "Feature", "geometry": {"type": "Point", "coordinates": [15.34103, 48.11107]}, "properties": {"name": "Mank", "place": "town", "rank": 2, "pop": 1571}}, {"type": "Feature", "geometry": {"type": "Point", "coordinates": [16.07861, 48.05858]}, "properties": {"name": "Alland", "place": "town", "rank": 2, "pop": 1558}}, {"type": "Feature", "geometry": {"type": "Point", "coordinates": [13.53598, 46.90656]}, "properties": {"name": "Gmünd", "place": "town", "rank": 2, "pop": 1547}}, {"type": "Feature", "geometry": {"type": "Point", "coordinates": [15.9071, 48.19701]}, "properties": {"name": "Neulengbach", "place": "town", "rank": 2, "pop": 1529}}, {"type": "Feature", "geometry": {"type": "Point", "coordinates": [13.37024, 46.62681]}, "properties": {"name": "Hermagor", "place": "town", "rank": 2, "pop": 1527}}, {"type": "Feature", "geometry": {"type": "Point", "coordinates": [6.51345, 43.84646]}, "properties": {"name": "Castellane", "place": "town", "rank": 2, "ele": 735, "pop": 1456}}, {"type": "Feature", "geometry": {"type": "Point", "coordinates": [14.79899, 46.59011]}, "properties": {"name": "Bleiburg/Pliberk", "place": "town", "rank": 2, "pop": 1339}}, {"type": "Feature", "geometry": {"type": "Point", "coordinates": [14.82361, 46.76611]}, "properties": {"name": "Sankt Andrä", "place": "town", "rank": 2, "pop": 1299}}, {"type": "Feature", "geometry": {"type": "Point", "coordinates": [13.87136, 46.56593]}, "properties": {"name": "Finkenstein", "place": "town", "rank": 2, "pop": 1275}}, {"type": "Feature", "geometry": {"type": "Point", "coordinates": [14.14476, 46.10512]}, "properties": {"name": "Gorenja vas", "place": "town", "rank": 2, "pop": 1155}}, {"type": "Feature", "geometry": {"type": "Point", "coordinates": [14.7441, 45.95544]}, "properties": {"name": "Višnja Gora", "place": "town", "rank": 2, "pop": 1090}}, {"type": "Feature", "geometry": {"type": "Point", "coordinates": [13.18041, 46.75061]}, "properties": {"name": "Greifenburg", "place": "town", "rank": 2, "pop": 1005}}, {"type": "Feature", "geometry": {"type": "Point", "coordinates": [11.45366, 47.13125]}, "properties": {"name": "Matrei am Brenner", "place": "town", "rank": 2, "ele": 953, "pop": 902}}, {"type": "Feature", "geometry": {"type": "Point", "coordinates": [10.55391, 46.67149]}, "properties": {"name": "Glurns - Glorenza", "place": "town", "rank": 2, "ele": 908, "pop": 896}}, {"type": "Feature", "geometry": {"type": "Point", "coordinates": [14.59323, 46.4868]}, "properties": {"name": "Bad Eisenkappel/Železna Kapla", "place": "town", "rank": 2, "pop": 872}}, {"type": "Feature", "geometry": {"type": "Point", "coordinates": [14.28977, 46.87512]}, "properties": {"name": "Gurk", "place": "town", "rank": 2, "pop": 861}}, {"type": "Feature", "geometry": {"type": "Point", "coordinates": [13.68716, 46.6246]}, "properties": {"name": "Bad Bleiberg", "place": "town", "rank": 2, "ele": 902, "pop": 589}}, {"type": "Feature", "geometry": {"type": "Point", "coordinates": [15.74283, 46.05023]}, "properties": {"name": "Klanjec", "place": "town", "rank": 2, "pop": 506}}, {"type": "Feature", "geometry": {"type": "Point", "coordinates": [11.89411, 47.43988]}, "properties": {"name": "Rattenberg", "place": "town", "rank": 2, "pop": 440}}, {"type": "Feature", "geometry": {"type": "Point", "coordinates": [13.20198, 46.93283]}, "properties": {"name": "Obervellach", "place": "town", "rank": 2, "pop": 243}}, {"type": "Feature", "geometry": {"type": "Point", "coordinates": [8.55801, 45.93441]}, "properties": {"name": "Verbania", "place": "town", "rank": 2}}, {"type": "Feature", "geometry": {"type": "Point", "coordinates": [10.30095, 45.53602]}, "properties": {"name": "Botticino", "place": "town", "rank": 2}}, {"type": "Feature", "geometry": {"type": "Point", "coordinates": [15.14748, 47.05047]}, "properties": {"name": "Voitsberg", "place": "town", "rank": 2}}, {"type": "Feature", "geometry": {"type": "Point", "coordinates": [8.4611, 47.18238]}, "properties": {"name": "Cham", "place": "town", "rank": 2, "ele": 420}}, {"type": "Feature", "geometry": {"type": "Point", "coordinates": [9.69266, 47.55075]}, "properties": {"name": "Lindau (Bodensee)", "place": "town", "rank": 2, "ele": 401}}, {"type": "Feature", "geometry": {"type": "Point", "coordinates": [9.88639, 47.60156]}, "properties": {"name": "Lindenberg im Allgäu", "place": "town", "rank": 2, "ele": 764}}, {"type": "Feature", "geometry": {"type": "Point", "coordinates": [10.27744, 47.41043]}, "properties": {"name": "Oberstdorf", "place": "town", "rank": 2, "ele": 813}}, {"type": "Feature", "geometry": {"type": "Point", "coordinates": [10.21905, 47.55979]}, "properties": {"name": "Immenstadt im Allgäu", "place": "town", "rank": 2, "ele": 729}}, {"type": "Feature", "geometry": {"type": "Point", "coordinates": [10.28193, 47.51354]}, "properties": {"name": "Sonthofen", "place": "town", "rank": 2, "ele": 741}}, {"type": "Feature", "geometry": {"type": "Point", "coordinates": [10.36993, 47.50629]}, "properties": {"name": "Bad Hindelang", "place": "town", "rank": 2, "ele": 825}}, {"type": "Feature", "geometry": {"type": "Point", "coordinates": [10.55797, 47.58138]}, "properties": {"name": "Pfronten", "place": "town", "rank": 2}}, {"type": "Feature", "geometry": {"type": "Point", "coordinates": [10.63047, 47.54933]}, "properties": {"name": "Vils", "place": "town", "rank": 2, "ele": 826}}, {"type": "Feature", "geometry": {"type": "Point", "coordinates": [16.33343, 48.34406]}, "properties": {"name": "Korneuburg", "place": "town", "rank": 2}}, {"type": "Feature", "geometry": {"type": "Point", "coordinates": [16.26517, 48.11914]}, "properties": {"name": "Perchtoldsdorf", "place": "village", "rank": 1, "pop": 13998}}, {"type": "Feature", "geometry": {"type": "Point", "coordinates": [9.69165, 47.48939]}, "properties": {"name": "Hard", "place": "village", "rank": 1, "pop": 13786}}, {"type": "Feature", "geometry": {"type": "Point", "coordinates": [11.14486, 46.61602]}, "properties": {"name": "Lana", "place": "village", "rank": 1, "pop": 12286}}, {"type": "Feature", "geometry": {"type": "Point", "coordinates": [12.9807, 47.7986]}, "properties": {"name": "Wals-Siezenheim", "place": "village", "rank": 1, "pop": 11450}}, {"type": "Feature", "geometry": {"type": "Point", "coordinates": [8.43863, 47.08385]}, "properties": {"name": "Küssnacht", "place": "village", "rank": 1, "pop": 10704}}, {"type": "Feature", "geometry": {"type": "Point", "coordinates": [12.94291, 47.81562]}, "properties": {"name": "Ainring", "place": "village", "rank": 1, "pop": 10010}}, {"type": "Feature", "geometry": {"type": "Point", "coordinates": [9.84256, 45.69648]}, "properties": {"name": "Trescore Balneario", "place": "village", "rank": 1, "pop": 9879}}, {"type": "Feature", "geometry": {"type": "Point", "coordinates": [5.63618, 45.29284]}, "properties": {"name": "Voreppe", "place": "village", "rank": 1, "pop": 9758}}, {"type": "Feature", "geometry": {"type": "Point", "coordinates": [10.30187, 45.53598]}, "properties": {"name": "Botticino Sera", "place": "village", "rank": 1, "pop": 9730}}, {"type": "Feature", "geometry": {"type": "Point", "coordinates": [6.24933, 45.99648]}, "properties": {"name": "Thorens-Glières", "place": "village", "rank": 1, "pop": 9547}}, {"type": "Feature", "geometry": {"type": "Point", "coordinates": [8.85238, 47.19238]}, "properties": {"name": "Lachen SZ", "place": "village", "rank": 1, "ele": 408, "pop": 9529}}, {"type": "Feature", "geometry": {"type": "Point", "coordinates": [7.98843, 46.32429]}, "properties": {"name": "Naters", "place": "village", "rank": 1, "ele": 673, "pop": 9496}}, {"type": "Feature", "geometry": {"type": "Point", "coordinates": [16.28369, 48.10709]}, "properties": {"name": "Brunn am Gebirge", "place": "village", "rank": 1, "pop": 9422}}, {"type": "Feature", "geometry": {"type": "Point", "coordinates": [11.42903, 45.69259]}, "properties": {"name": "Marano Vicentino", "place": "village", "rank": 1, "pop": 9345}}, {"type": "Feature", "geometry": {"type": "Point", "coordinates": [8.85962, 45.86039]}, "properties": {"name": "Arcisate", "place": "village", "rank": 1, "pop": 9280}}, {"type": "Feature", "geometry": {"type": "Point", "coordinates": [8.48601, 47.19751]}, "properties": {"name": "Steinhausen", "place": "village", "rank": 1, "ele": 427, "pop": 9258}}, {"type": "Feature", "geometry": {"type": "Point", "coordinates": [6.2496, 46.20253]}, "properties": {"name": "Ville-la-Grand", "place": "village", "rank": 1, "pop": 9169}}, {"type": "Feature", "geometry": {"type": "Point", "coordinates": [8.71767, 45.84283]}, "properties": {"name": "Gavirate", "place": "village", "rank": 1, "pop": 9147}}, {"type": "Feature", "geometry": {"type": "Point", "coordinates": [9.66261, 45.74457]}, "properties": {"name": "Sorisole", "place": "village", "rank": 1, "pop": 9120}}, {"type": "Feature", "geometry": {"type": "Point", "coordinates": [6.54985, 46.05725]}, "properties": {"name": "Scionzier", "place": "village", "rank": 1, "pop": 9059}}, {"type": "Feature", "geometry": {"type": "Point", "coordinates": [8.2837, 44.14891]}, "properties": {"name": "Pietra Ligure", "place": "village", "rank": 1, "pop": 8992}}, {"type": "Feature", "geometry": {"type": "Point", "coordinates": [11.11023, 46.13974]}, "properties": {"name": "Lavis", "place": "village", "rank": 1, "pop": 8915}}, {"type": "Feature", "geometry": {"type": "Point", "coordinates": [12.12543, 45.90538]}, "properties": {"name": "Farra di Soligo", "place": "village", "rank": 1, "pop": 8913}}, {"type": "Feature", "geometry": {"type": "Point", "coordinates": [11.28367, 45.41725]}, "properties": {"name": "Monteforte d'Alpone", "place": "village", "rank": 1, "pop": 8891}}, {"type": "Feature", "geometry": {"type": "Point", "coordinates": [16.31437, 48.08336]}, "properties": {"name": "Wiener Neudorf", "place": "village", "rank": 1, "pop": 8838}}, {"type": "Feature", "geometry": {"type": "Point", "coordinates": [14.3092, 48.04472]}, "properties": {"name": "Sierning", "place": "village", "rank": 1, "pop": 8833}}, {"type": "Feature", "geometry": {"type": "Point", "coordinates": [9.70819, 45.71627]}, "properties": {"name": "Torre Boldone", "place": "village", "rank": 1, "pop": 8825}}, {"type": "Feature", "geometry": {"type": "Point", "coordinates": [11.37485, 45.56404]}, "properties": {"name": "Trissino", "place": "village", "rank": 1, "pop": 8784}}, {"type": "Feature", "geometry": {"type": "Point", "coordinates": [6.06265, 45.92204]}, "properties": {"name": "Poisy", "place": "village", "rank": 1, "pop": 8773}}, {"type": "Feature", "geometry": {"type": "Point", "coordinates": [9.7502, 47.46678]}, "properties": {"name": "Wolfurt", "place": "village", "rank": 1, "ele": 420, "pop": 8765}}, {"type": "Feature", "geometry": {"type": "Point", "coordinates": [5.02366, 44.72827]}, "properties": {"name": "Crest", "place": "village", "rank": 1, "pop": 8756}}, {"type": "Feature", "geometry": {"type": "Point", "coordinates": [9.01341, 46.17392]}, "properties": {"name": "Giubiasco", "place": "village", "rank": 1, "ele": 238, "pop": 8751}}, {"type": "Feature", "geometry": {"type": "Point", "coordinates": [16.15577, 47.93894]}, "properties": {"name": "Sankt Veit an der Triesting", "place": "village", "rank": 1, "pop": 8728}}, {"type": "Feature", "geometry": {"type": "Point", "coordinates": [9.55697, 46.96624]}, "properties": {"name": "Landquart", "place": "village", "rank": 1, "ele": 563, "pop": 8692}}, {"type": "Feature", "geometry": {"type": "Point", "coordinates": [11.56477, 45.70814]}, "properties": {"name": "Breganze", "place": "village", "rank": 1, "pop": 8677}}, {"type": "Feature", "geometry": {"type": "Point", "coordinates": [11.60293, 45.66061]}, "properties": {"name": "Sandrigo", "place": "village", "rank": 1, "pop": 8630}}, {"type": "Feature", "geometry": {"type": "Point", "coordinates": [11.1867, 45.43463]}, "properties": {"name": "Colognola ai Colli", "place": "village", "rank": 1, "pop": 8627}}, {"type": "Feature", "geometry": {"type": "Point", "coordinates": [5.66903, 45.05549]}, "properties": {"name": "Vif", "place": "village", "rank": 1, "pop": 8584}}, {"type": "Feature", "geometry": {"type": "Point", "coordinates": [9.37502, 45.81753]}, "properties": {"name": "Galbiate", "place": "village", "rank": 1, "ele": 371, "pop": 8520}}, {"type": "Feature", "geometry": {"type": "Point", "coordinates": [11.75933, 45.76755]}, "properties": {"name": "San Giuseppe", "place": "village", "rank": 1, "pop": 8508}}, {"type": "Feature", "geometry": {"type": "Point", "coordinates": [10.09816, 45.82989]}, "properties": {"name": "Costa Volpino", "place": "village", "rank": 1, "pop": 8460}}, {"type": "Feature", "geometry": {"type": "Point", "coordinates": [10.11586, 45.56053]}, "properties": {"name": "Castegnato", "place": "village", "rank": 1, "pop": 8457}}, {"type": "Feature", "geometry": {"type": "Point", "coordinates": [6.09087, 45.9381]}, "properties": {"name": "Épagny Metz-Tessy", "place": "village", "rank": 1, "pop": 8454}}, {"type": "Feature", "geometry": {"type": "Point", "coordinates": [16.31322, 48.04862]}, "properties": {"name": "Guntramsdorf", "place": "village", "rank": 1, "pop": 8421}}, {"type": "Feature", "geometry": {"type": "Point", "coordinates": [8.10454, 45.56448]}, "properties": {"name": "Vigliano Biellese", "place": "village", "rank": 1, "pop": 8416}}, {"type": "Feature", "geometry": {"type": "Point", "coordinates": [10.79513, 45.60594]}, "properties": {"name": "Caprino Veronese", "place": "village", "rank": 1, "pop": 8371}}, {"type": "Feature", "geometry": {"type": "Point", "coordinates": [8.61896, 45.9119]}, "properties": {"name": "Laveno", "place": "village", "rank": 1, "pop": 8357}}, {"type": "Feature", "geometry": {"type": "Point", "coordinates": [11.45738, 47.28678]}, "properties": {"name": "Rum", "place": "village", "rank": 1, "ele": 621, "pop": 8352}}, {"type": "Feature", "geometry": {"type": "Point", "coordinates": [9.9336, 45.63726]}, "properties": {"name": "Capriolo", "place": "village", "rank": 1, "pop": 8347}}, {"type": "Feature", "geometry": {"type": "Point", "coordinates": [11.43013, 45.75883]}, "properties": {"name": "Piovene Rocchette", "place": "village", "rank": 1, "pop": 8346}}, {"type": "Feature", "geometry": {"type": "Point", "coordinates": [8.43822, 44.27144]}, "properties": {"name": "Vado Ligure", "place": "village", "rank": 1, "pop": 8336}}, {"type": "Feature", "geometry": {"type": "Point", "coordinates": [5.88394, 45.28459]}, "properties": {"name": "Crolles", "place": "village", "rank": 1, "pop": 8317}}, {"type": "Feature", "geometry": {"type": "Point", "coordinates": [11.44563, 45.52803]}, "properties": {"name": "Sovizzo", "place": "village", "rank": 1, "pop": 8308}}, {"type": "Feature", "geometry": {"type": "Point", "coordinates": [5.68252, 45.08856]}, "properties": {"name": "Varces-Allières-et-Risset", "place": "village", "rank": 1, "pop": 8287}}, {"type": "Feature", "geometry": {"type": "Point", "coordinates": [9.0871, 47.30045]}, "properties": {"name": "Wattwil", "place": "village", "rank": 1, "pop": 8265}}, {"type": "Feature", "geometry": {"type": "Point", "coordinates": [6.87569, 43.64199]}, "properties": {"name": "Peymeinade", "place": "village", "rank": 1, "pop": 8256}}, {"type": "Feature", "geometry": {"type": "Point", "coordinates": [8.6665, 45.8458]}, "properties": {"name": "Besozzo", "place": "village", "rank": 1, "pop": 8239}}, {"type": "Feature", "geometry": {"type": "Point", "coordinates": [12.58911, 46.06854]}, "properties": {"name": "Aviano / Davian - Pleif", "place": "village", "rank": 1, "pop": 8225}}, {"type": "Feature", "geometry": {"type": "Point", "coordinates": [16.35726, 48.30964]}, "properties": {"name": "Langenzersdorf", "place": "village", "rank": 1, "pop": 8200}}, {"type": "Feature", "geometry": {"type": "Point", "coordinates": [7.11465, 46.139]}, "properties": {"name": "Fully", "place": "village", "rank": 1, "ele": 461, "pop": 8181}}, {"type": "Feature", "geometry": {"type": "Point", "coordinates": [6.26908, 46.13591]}, "properties": {"name": "Reignier", "place": "village", "rank": 1, "pop": 8170}}, {"type": "Feature", "geometry": {"type": "Point", "coordinates": [7.09761, 43.6857]}, "properties": {"name": "La Colle-sur-Loup", "place": "village", "rank": 1, "pop": 8084}}, {"type": "Feature", "geometry": {"type": "Point", "coordinates": [9.47265, 45.69138]}, "properties": {"name": "Calusco d'Adda", "place": "village", "rank": 1, "pop": 8052}}, {"type": "Feature", "geometry": {"type": "Point", "coordinates": [5.68781, 45.15931]}, "properties": {"name": "Seyssins", "place": "village", "rank": 1, "pop": 7997}}, {"type": "Feature", "geometry": {"type": "Point", "coordinates": [14.35952, 46.60638]}, "properties": {"name": "Ebenthal", "place": "village", "rank": 1, "pop": 7991}}, {"type": "Feature", "geometry": {"type": "Point", "coordinates": [10.24073, 45.47718]}, "properties": {"name": "Borgosatollo", "place": "village", "rank": 1, "pop": 7972}}, {"type": "Feature", "geometry": {"type": "Point", "coordinates": [16.22852, 47.95136]}, "properties": {"name": "Kottingbrunn", "place": "village", "rank": 1, "pop": 7947}}, {"type": "Feature", "geometry": {"type": "Point", "coordinates": [7.16018, 46.77477]}, "properties": {"name": "Marly", "place": "village", "rank": 1, "ele": 627, "pop": 7919}}, {"type": "Feature", "geometry": {"type": "Point", "coordinates": [7.25132, 44.81544]}, "properties": {"name": "Luserna San Giovanni", "place": "village", "rank": 1, "pop": 7866}}, {"type": "Feature", "geometry": {"type": "Point", "coordinates": [5.6729, 45.12004]}, "properties": {"name": "Claix", "place": "village", "rank": 1, "pop": 7859}}, {"type": "Feature", "geometry": {"type": "Point", "coordinates": [9.22361, 45.74048]}, "properties": {"name": "Inverigo", "place": "village", "rank": 1, "pop": 7825}}, {"type": "Feature", "geometry": {"type": "Point", "coordinates": [11.17739, 45.41439]}, "properties": {"name": "Caldiero", "place": "village", "rank": 1, "pop": 7808}}, {"type": "Feature", "geometry": {"type": "Point", "coordinates": [8.1126, 45.54621]}, "properties": {"name": "Candelo", "place": "village", "rank": 1, "pop": 7804}}, {"type": "Feature", "geometry": {"type": "Point", "coordinates": [9.45069, 46.83513]}, "properties": {"name": "Domat/Ems", "place": "village", "rank": 1, "ele": 586, "pop": 7745}}, {"type": "Feature", "geometry": {"type": "Point", "coordinates": [10.10819, 45.80573]}, "properties": {"name": "Pisogne", "place": "village", "rank": 1, "pop": 7716}}, {"type": "Feature", "geometry": {"type": "Point", "coordinates": [5.32035, 45.15397]}, "properties": {"name": "Saint-Marcellin", "place": "village", "rank": 1, "pop": 7708}}, {"type": "Feature", "geometry": {"type": "Point", "coordinates": [5.48297, 45.29777]}, "properties": {"name": "Tullins", "place": "village", "rank": 1, "pop": 7706}}, {"type": "Feature", "geometry": {"type": "Point", "coordinates": [9.04855, 45.80842]}, "properties": {"name": "San Fermo della Battaglia", "place": "village", "rank": 1, "pop": 7682}}, {"type": "Feature", "geometry": {"type": "Point", "coordinates": [13.77417, 47.81224]}, "properties": {"name": "Ebensee am Traunsee", "place": "village", "rank": 1, "ele": 443, "pop": 7675}}, {"type": "Feature", "geometry": {"type": "Point", "coordinates": [11.80127, 45.77895]}, "properties": {"name": "Mussolente", "place": "village", "rank": 1, "pop": 7658}}, {"type": "Feature", "geometry": {"type": "Point", "coordinates": [6.5437, 46.38703]}, "properties": {"name": "Publier", "place": "village", "rank": 1, "pop": 7646}}, {"type": "Feature", "geometry": {"type": "Point", "coordinates": [11.48774, 45.58554]}, "properties": {"name": "Costabissara", "place": "village", "rank": 1, "pop": 7634}}, {"type": "Feature", "geometry": {"type": "Point", "coordinates": [9.87676, 45.63718]}, "properties": {"name": "Grumello del Monte", "place": "village", "rank": 1, "ele": 208, "pop": 7629}}, {"type": "Feature", "geometry": {"type": "Point", "coordinates": [9.67518, 45.66104]}, "properties": {"name": "Azzano San Paolo", "place": "village", "rank": 1, "pop": 7625}}, {"type": "Feature", "geometry": {"type": "Point", "coordinates": [6.36809, 46.05899]}, "properties": {"name": "Saint-Pierre-en-Faucigny", "place": "village", "rank": 1, "pop": 7591}}, {"type": "Feature", "geometry": {"type": "Point", "coordinates": [6.29342, 45.74685]}, "properties": {"name": "Faverges", "place": "village", "rank": 1, "pop": 7581}}, {"type": "Feature", "geometry": {"type": "Point", "coordinates": [5.56472, 45.32626]}, "properties": {"name": "Moirans", "place": "village", "rank": 1, "pop": 7565}}, {"type": "Feature", "geometry": {"type": "Point", "coordinates": [9.61097, 45.69151]}, "properties": {"name": "Curno", "place": "village", "rank": 1, "pop": 7564}},